name,price,lng,lat,rate_score
松木场河东,57287,120.1551513671875,30.2763614654541,175.707
胜利新村,54222,120.1588897705078,30.27651405334473,166.122
友谊新村,52891,120.15057373046876,30.273935317993164,122.027
金祝新村,56266,120.1574935913086,30.27549171447754,129.667
松木场河西,54452,120.15357208251952,30.27535629272461,147.518
曙光路小区,55203,120.13704681396484,30.263458251953125,142.97
桃园新村,58920,120.1531219482422,30.272491455078125,156.5
王家弄小区,51548,120.1530303955078,30.27433967590332,28.435
铁路新村西湖,51065,119.05252838134766,29.59988594055176,31.135
莫干山路79号,59060,120.16036987304688,30.28016471862793,202.631
玉古路小区,56909,120.13249969482422,30.26781272888184,121.544
保俶路小区,58267,120.15583801269531,30.27091789245605,132.182
亚洲城花园东区,44360,120.1184310913086,30.28166007995605,150.886
保俶小区,57179,120.1530303955078,30.27253341674805,169.571
栖霞岭,65588,120.14068603515624,30.25933837890625,25.13
仁寿山,56671,120.13549041748048,30.261430740356445,24.485
金祝花园,59877,120.15863800048828,30.27584457397461,126.678
宝麓山庄,39062,120.15470886230469,30.26871490478516,104.95
宝石新村,67842,120.15380096435548,30.27018547058105,133.35
龙游路小区,44828,120.16546630859376,30.26725578308105,126.716
白沙泉,56962,120.1432876586914,30.27073097229004,106.98
宝石社区,73160,120.15795135498048,30.268512725830078,24.96
宝石二路小区,60785,120.1530303955078,30.27047538757324,115.953
北山路小区,55778,120.15064239501952,30.26190185546875,26.045
保俶花园,39961,120.14639282226562,30.28825187683105,25.56
宝石山下五弄,61250,120.15554809570312,30.269084930419922,205.105
宝石山下二弄,61173,120.15789794921876,30.26710319519043,185.4
城河下小区,60561,120.16136169433594,30.26931953430176,94.28
达盟山庄商务公寓,57066,120.15809631347656,30.267974853515625,151.505
东山弄社区,66738,120.13518524169922,30.26428604125977,153.17
芳草苑,37117,120.1484832763672,30.28577041625977,171.635
葛岭山庄,57066,120.15118408203124,30.264562606811523,26.185
杭大路46号院,66189,120.14778900146484,30.274938583374023,34.19
嘉华国际公寓,58530,120.14704895019531,30.27601623535156,118.19
教工路138号院,59632,120.14346313476562,30.28701591491699,122.293
昆仑大厦,58275,120.15689086914062,30.27469062805176,131.705
留博楼,49744,120.1368408203125,30.270282745361328,149.118
绿宝公寓,57584,120.15797424316406,30.26879692077637,100.04
马塍路20号,60488,120.1543426513672,30.283649444580078,97.163
跑马场巷,66196,120.14521026611328,30.27457427978516,104.48
翠苑一区,40894,120.13434600830078,30.29189491271973,222.635
翠苑三区,39316,120.12764739990234,30.296178817749023,27.025
翠苑五区,37274,120.1277313232422,30.289520263671875,303.54
翠苑四区,39593,120.12759399414062,30.293621063232425,151.339
庆隆苑,36007,120.12763214111328,30.3016414642334,155.526
翠苑二区,40052,120.13445281982422,30.295337677001953,29.085
金色蓝庭,51538,120.12342071533205,30.294639587402344,166.513
翠苑东二区,37425,120.1357421875,30.29928779602051,166.556
翠苑逸景湾,38464,120.12918853759766,30.299203872680664,166.846
桃源春居,32871,120.11941528320312,30.29709053039551,154.382
学院春晓,42127,120.13426208496094,30.29942321777344,150.906
文二路小区,62196,120.14875793457031,30.28941535949707,137.788
翠苑北二区,34565,120.13459014892578,30.29751968383789,154.615
教工里,28557,120.14030456542969,30.30060195922852,134.114
古荡湾南苑,14122,120.13053894042969,30.282344818115234,98.766
翠苑佳居,44886,120.1301727294922,30.2991943359375,213.358
翠苑东四区,44158,120.13109588623048,30.29246711730957,149.866
保亭社区,68832,120.1400375366211,30.29645156860352,189.955
翠苑小区,46275,120.13811492919922,30.29693603515625,26.845
古荡湾新村,28053,120.1322784423828,30.291805267333984,175.708
莫干山路599号,52271,120.1497039794922,30.297771453857425,29.48
宋江苑,45047,120.1275863647461,30.298498153686523,35.79
省广电厅宿舍,36940,120.11029052734376,30.274688720703125,113.14
团校宿舍,53422,120.14250183105469,30.28982925415039,123.37
文菁花苑,35125,120.13153076171876,30.2956600189209,125.545
文一路小区,46345,120.1299057006836,30.293832778930664,25.105
文三路402号院,42454,120.13296508789062,30.28343391418457,146.29
学院路178号,47689,120.13584899902344,30.289878845214844,149.665
学苑春晓,0,,,0.0
学院路99号,51592,120.13558197021484,30.283721923828125,29.51
营盘地,68905,120.1395263671875,30.28684234619141,146.37
浙大文一路小区,68832,120.14019775390624,30.29512023925781,125.415
古荡新村西区,34990,120.12008666992188,30.28154563903809,193.915
嘉绿西苑,43857,120.11726379394531,30.285985946655273,184.905
古荡新村东区,35535,120.12387084960938,30.2811279296875,201.249
坤和山水人家三期,39687,120.11685943603516,30.278350830078125,161.833
嘉绿青苑,42697,120.1223373413086,30.2846794128418,27.86
嘉绿文苑,39221,120.12027740478516,30.283403396606445,26.205
龙湖唐宁ONE,51236,120.1248550415039,30.29133605957031,24.45
山水人家,37976,120.1152114868164,30.276531219482425,176.797
毛家桥公寓,47029,120.12290954589844,30.291912078857425,151.791
亚洲城花园西区,35876,120.11886596679688,30.281452178955078,167.43
南都银座公寓,37966,120.11917114257812,30.287857055664066,182.074
西苑小区,28014,120.1198959350586,30.298057556152344,120.701
嘉绿莲苑,43545,120.12349700927734,30.2882137298584,129.389
万塘路小区,42658,120.1303253173828,30.28684234619141,132.024
文三西路小区,42033,120.11581420898438,30.282123565673828,129.235
月桂花园别墅,40106,120.11219787597656,30.282310485839844,132.493
丹桂花园,49036,120.1047134399414,30.281604766845703,113.028
东岳公寓,19355,120.09687042236328,30.261173248291016,193.855
古荡桥,56674,120.12986755371094,30.28282356262207,171.575
古荡湾北苑,45449,120.12947845458984,30.286102294921875,108.185
古荡小区,51537,120.1223602294922,30.278425216674805,133.968
古南社区,49175,120.1209945678711,30.27926826477051,128.73
华立碧水铭苑别墅,24045,120.04650115966795,30.28193473815918,87.285
黄姑山庄,41626,120.14068603515624,30.28125762939453,32.66
华星科技苑,51675,120.13044738769531,30.280010223388672,38.32
杭大路38号院,68444,120.14865112304688,30.27547264099121,197.215
嘉绿南苑,40878,120.12428283691406,30.284481048583984,160.01
聚龙大厦公寓,66206,120.14594268798828,30.27507781982422,138.1
聚丰公寓,59671,120.1340560913086,30.27731704711914,193.85
嘉乐金座,35182,120.12052917480469,30.293132781982425,98.9
浪琴翠园,45511,120.13404846191406,30.30247688293457,152.163
蓝海时代国际大厦,39671,120.11997985839844,30.28627777099609,37.51
龙都大厦公寓,51903,120.12586975097656,30.278738021850586,143.675
老东岳别墅,52789,120.10143280029295,30.26463508605957,93.96
炮台公寓,37976,120.11378479003906,30.27761459350586,76.31
省高院华星路宿舍,45437,120.12932586669922,30.285602569580078,120.33
省统计局宿舍,43026,120.14116668701172,30.28706359863281,54.575
天目山路338号,51903,120.12897491455078,30.278526306152344,163.875
益乐新村,20724,120.11700439453124,30.28873062133789,90.825
亚洲城别墅,34547,120.11929321289062,30.282339096069336,110.236
求是新村,65079,120.13448333740234,30.26947593688965,138.675
世贸丽晶城,67305,120.14466857910156,30.27964210510254,186.665
外东山弄,60050,120.13465881347656,30.26357841491699,166.063
曙光新村,66593,120.13758850097656,30.26716613769531,116.833
绿园,64803,120.13536071777344,30.2716007232666,206.167
黄龙雅苑,60732,120.1446533203125,30.27568244934082,230.123
庆丰新村,46121,120.13335418701172,30.275089263916016,140.968
里东山弄,58944,120.1356964111328,30.26457214355469,165.069
梧桐公寓,52601,120.1358642578125,30.29299736022949,59.13
丁香公寓,44451,120.13831329345705,30.277328491210934,34.074
曙光公寓,66607,120.1371612548828,30.26237487792969,113.89
国际花园,31693,120.14435577392578,30.27799415588379,180.595
世贸丽晶城EAC公寓,64000,120.14366912841795,30.27988052368164,52.734
世贸丽晶城栖霞苑,61207,120.14864349365234,30.277891159057614,125.468
世贸丽晶城初阳苑,55505,120.14864349365234,30.277891159057614,46.82
桃花弄小区,54654,120.1562728881836,30.27500343322754,144.973
天目山路101号,46014,120.10787963867188,30.27294540405273,84.145
世贸丽晶城望湖苑,58871,120.14864349365234,30.277891159057614,140.891
世贸丽晶城玉泉苑,58548,120.14864349365234,30.277891159057614,127.993
世贸丽晶城宝石苑,61733,120.14864349365234,30.277891159057614,165.22
黄龙世纪苑,58542,120.14581298828124,30.276165008544922,113.24
黄龙雅苑公寓,65323,120.14466094970705,30.275503158569336,48.935
教工路131号院,70320,120.1417465209961,30.29030036926269,32.085
欧美中心,27611,120.14359283447266,30.277603149414066,23.63
天目山路228号,66342,120.13418579101562,30.27973556518555,126.075
华苑公寓,55851,120.10450744628906,30.29369354248047,158.46
政新花园,54196,120.10543823242188,30.29706954956055,160.01
紫荆欣苑,67403,120.10009002685548,30.29828643798828,62.413
泰和中央广场,32105,,,6.47
金桂大厦,24451,120.10574340820312,30.28829765319824,181.435
星洲花园排屋,67035,120.1019515991211,30.29511833190918,134.29
登新公寓,21842,120.0964126586914,30.284194946289066,135.25
富越香墅,47837,120.0958251953125,30.29723358154297,110.843
蒋村花园,25489,120.08892059326172,30.2893180847168,56.82
嘉禾花苑,35177,120.1024169921875,30.27819061279297,27.115
骆家庄西苑,23655,120.09918212890624,30.291423797607425,77.51
通策在河之洲,40964,120.04356384277344,30.277915954589844,115.51
许家坞,51916,116.98334503173828,29.2464542388916,49.325
香墅,46026,120.09585571289062,30.297250747680664,28.005
九莲新村,36708,120.13758850097656,30.28458595275879,179.67
枫华府第,51347,120.13417053222656,30.28781318664551,195.23
花园南村,60296,120.14089965820312,30.28909111022949,174.195
天苑花园,28661,120.12906646728516,30.28374481201172,62.041
启真名苑,57478,120.15169525146484,30.27867126464844,123.51
西湖明珠公寓,36685,120.13004302978516,30.28422737121582,158.849
花园西村,59092,120.13663482666016,30.288433074951172,147.57
华远大厦,33473,120.13253784179688,30.28272247314453,65.109
花园北村,56186,120.13886260986328,30.28976058959961,175.169
景城花园,47324,120.13386535644531,30.28494071960449,158.647
华门世家,33133,120.13665008544922,30.28256607055664,130.015
华星公寓,40469,120.12953186035156,30.28511619567871,61.248
黄姑山路小区,40842,120.14030456542969,30.28134155273437,149.099
康新花园,28090,120.12744140625,30.281837463378906,173.47
中融城市花园,45949,120.13508605957031,30.278160095214844,178.775
花园新村,66313,120.14411926269531,30.286434173583984,150.827
教师公寓,89570,120.12986755371094,30.28742980957031,136.596
教工路65号院,39537,120.1419906616211,30.286117553710934,142.605
教工路52号,64739,120.14320373535156,30.28207778930664,146.0
曲荷巷小区,37159,120.1364517211914,30.28113174438477,105.026
塘苗路28号,36750,120.12775421142578,30.280527114868164,145.2
伟星大厦,33429,120.14205169677734,30.283483505249023,109.566
文三路小区,60482,120.15208435058594,30.28357124328613,50.935
伟星公寓,46730,120.14055633544922,30.2834415435791,151.415
欣园居,54093,120.1433334350586,30.283092498779297,173.64
学院路59号,47685,120.1359634399414,30.289295196533203,148.315
影业路小区,57206,120.14078521728516,30.28637504577637,195.865
中兴文都苑,44987,120.131591796875,30.281856536865234,48.33
西湖花园别墅,49786,120.11073303222656,30.18520164489746,29.503
杭大新村,51534,120.1494369506836,30.27546501159668,84.87
白乐人家,33831,120.11480712890624,30.25033187866211,68.465
白乐桥,71333,120.11412048339844,30.25117111206055,30.695
常安度假别墅,40440,120.0725555419922,30.17770576477051,30.886
九里松花苑,56696,120.12462615966795,30.251300811767575,49.025
梅家坞,67703,120.09547424316406,30.21101951599121,48.64
庆丰公寓,59689,120.13016510009766,30.27684783935547,34.79
三台云舍,55005,120.13977813720705,30.233606338500977,27.4
天竺路小区,67673,120.11244201660156,30.245851516723636,26.975
天竺路别墅,56404,120.11244201660156,30.245851516723636,26.815
五云山庄,35188,120.11823272705078,30.19253921508789,21.755
下满觉陇,10387,120.14152526855469,30.223167419433594,22.195
铂悦城,26658,,,0.0
和家园,42906,120.06817626953124,30.23964881896973,115.895
翰墨香林苑,21027,120.02392578125,30.216691970825195,28.67
和家园(南区),43708,,,27.5
复地黄龙和山,39867,120.07125854492188,30.248231887817386,92.98
浪漫和山,21189,120.01994323730469,30.218454360961914,36.262
留下西苑,30280,120.05992889404295,30.247568130493164,125.485
浪漫和山别墅,26126,120.0312728881836,30.209962844848636,28.09
西溪明珠,54932,120.06559753417969,30.25812721252441,64.066
滨江西溪明珠,53100,120.06646728515624,30.2543888092041,31.6
西溪十九府公寓,22583,120.03663635253906,30.21782493591309,57.103
西溪晴雪,41917,120.06290435791016,30.250398635864254,103.36
屏峰新村,31733,120.0557098388672,30.2296142578125,36.604
茶市新村,30258,120.06341552734376,30.246427536010746,112.2
九月森林别墅,32255,120.02865600585938,30.21459007263184,52.655
留下街13号小区,28275,,,0.0
西溪梅园,29986,120.06622314453124,30.24761009216309,104.624
坤和求是里,42542,120.07386016845705,30.24648284912109,109.115
留下街石油小区,33292,120.0557861328125,30.24958229064941,122.786
九月森林,41543,120.05004119873048,30.227914810180664,52.38
留庄,34486,120.0744400024414,30.26051521301269,114.71
五常乡白庙村,31621,120.04872131347656,30.26741600036621,48.183
西溪名园别墅,36204,120.08028411865234,30.26420783996582,34.071
西溪佳苑,21351,120.0745086669922,30.24913215637207,117.337
西溪壹树公寓,23351,120.06219482421876,30.25183486938477,156.89
云山秀水,24379,120.01461029052734,30.21478271484375,34.496
安乐新村,32618,120.06493377685548,30.24765968322754,88.845
东木坞村,18505,120.06452178955078,30.24896049499512,151.535
黄龙和山公寓,40719,120.0709228515625,30.247663497924805,47.625
海陆UN公社,29791,120.04681396484376,30.22418785095215,37.085
花坞新村,19355,120.08338928222656,30.26162338256836,127.123
坤和和家园别墅,54655,120.06501770019531,30.24736022949219,77.23
留和家苑,28296,120.06108856201172,30.24301338195801,92.973
留庄别墅,44203,120.07891082763672,30.26193809509277,30.735
留下大街小区,36751,120.05926513671876,30.245046615600586,100.78
苗圃宿舍,19350,120.09647369384766,30.26512718200684,89.355
石油地质勘探小区,30592,120.06648254394531,30.248157501220703,104.525
小和山林野山居,25880,120.03522491455078,30.21968650817871,28.45
西溪君逸汇,22460,120.06342315673828,30.245805740356445,139.786
西苑新村,37185,120.0589370727539,30.24754905700684,110.72
都市阳光嘉苑,26611,120.0743637084961,30.34306526184082,100.513
金地自在城林溪里,37130,120.07501983642578,30.33709526062012,0.0
金地自在城,38428,120.08529663085938,30.343669891357425,100.455
中国铁建西湖国际城,29297,120.07412719726562,30.3388729095459,23.5
协安紫郡,35281,120.07937622070312,30.33140754699707,97.93
中海紫藤苑,34398,120.07471466064452,30.33009910583496,155.26
龙湖水晶郦城,28624,120.07234954833984,30.34960556030273,115.005
都市水乡水秀苑,27814,120.09925842285156,30.32990455627441,116.43
紫金名门,35015,120.09198760986328,30.32415771484375,150.165
金地自在城鹭影轩,36920,120.07137298583984,30.33390235900879,35.956
景溪北苑,27344,120.0732879638672,30.354999542236328,37.5
中兴墩莳家园,26828,120.07866668701172,30.338054656982425,60.494
白马尊邸,34253,120.08724212646484,30.340560913085934,173.046
宝嘉誉府,34819,120.08984375,30.31975555419922,37.874
新星小区,29179,120.09342193603516,30.32841682434082,143.221
亲亲家园三期,27552,120.09026336669922,30.34134292602539,163.465
杭州金地广场,24520,120.0894775390625,30.34538269042969,138.835
国风美域,36735,120.1001968383789,30.32370376586914,35.78
润达花园,28200,120.09727478027344,30.33207893371582,156.74
丰盛九玺公寓,11169,,,49.86
铭雅苑,27191,120.0922622680664,30.344520568847656,146.077
港湾家园,43678,120.09252166748048,30.316631317138672,61.398
金地自在城悦活轩,34698,120.07601165771484,30.336278915405273,34.324
爱尚里,18503,120.0857925415039,30.32093620300293,94.552
金地自在城求学里,37122,120.07789611816406,30.33966827392578,32.834
乾成园,28102,120.0799331665039,30.31872367858887,68.205
金地自在城栖霞居,37480,120.0736083984375,30.33578681945801,8.136
都市水乡,29915,120.0971450805664,30.33822631835937,165.68
新世纪花苑,27670,120.09707641601562,30.330585479736328,105.215
三墩颐景园,37815,120.08851623535156,30.338153839111328,169.092
兰韵天城,35520,120.0923080444336,30.33606719970703,135.72
红杉雅园公寓,19588,120.09940338134766,30.33456611633301,55.314
紫金文苑,42032,120.10662078857422,30.30221176147461,148.94
西港发展中心,12905,120.07310485839844,30.31786346435547,109.896
天虹公寓,29312,120.09855651855469,30.32003593444824,213.421
裕华大厦,9830,120.08451080322266,30.3213005065918,117.803
中海金溪园,37987,120.0894775390625,30.343425750732425,147.095
杭州香港城公寓,11892,120.1083755493164,30.28141212463379,47.675
华彩国际公寓,9893,120.07632446289062,30.32732391357422,147.527
桔子里,12524,120.09083557128906,30.33786773681641,53.809
万家花城,47094,120.12000274658205,30.31014633178711,211.957
中梁申花百悦公馆,32738,,,6.272
欣盛东方福邸,52030,120.11882781982422,30.31289482116699,102.862
招商九龙仓学院北麓,43223,120.10830688476562,30.32594108581543,71.455
中天西城纪公寓,27928,120.11771392822266,30.29979515075684,151.12
融信学院府,46583,120.1127700805664,30.32212829589844,171.67
政苑小区,43805,120.11083221435548,30.302438735961914,182.453
圣苑,57118,120.10157775878906,30.30892944335937,114.01
西城年华,47889,120.1080322265625,30.315658569335934,259.588
滨江锦绣之城,58882,120.13514709472656,30.309511184692386,53.508
资辉壹方汇,30598,120.12630462646484,30.315786361694336,52.422
碧桂园西江月,47238,120.11837005615234,30.31606674194336,136.07
协安上郡,47089,120.10813903808594,30.31213569641113,138.69
龙申剑桥公社,10629,120.10061645507812,30.31170654296875,81.855
赛丽绿城慧园,54286,120.1121826171875,30.31257057189941,34.525
上尚庭,50588,120.11872863769531,30.306079864501953,57.355
尚景国际,56332,120.12503814697266,30.312366485595703,59.27
西城美墅,52968,120.10713958740234,30.31757164001465,129.866
融信蓝孔雀,49337,120.11239624023438,30.326616287231445,36.488
芳满庭,45048,120.11273193359376,30.30267143249512,146.738
绅华府,50337,120.12112426757812,30.305805206298828,27.69
金地申花里,35515,120.11170959472656,30.329030990600586,97.91
丽阳苑,45362,120.10549926757812,30.310312271118164,87.94
景瑞悦西台,48405,120.1106414794922,30.31478500366211,172.529
未来印,18353,120.0008316040039,30.27577018737793,0.0
橡树园,44985,120.11426544189452,30.3078556060791,151.62
三江花园道壹号,46275,120.11116790771484,30.324016571044922,55.91
同人精华公寓,22769,120.10565948486328,30.30778694152832,70.189
同人广场,13204,120.10554504394531,30.30565071105957,77.749
保利香槟国际,50936,120.11701202392578,30.31430053710937,146.864
冠苑小区,58158,120.10420989990234,30.302303314208984,27.99
景瑞申花壹号院,48939,120.11217498779295,30.31448173522949,158.453
天阳武林邸,57158,120.12882232666016,30.31448173522949,134.855
五洲国际公寓,24778,120.10417938232422,30.30060577392578,124.904
城西银泰城公寓,19526,120.11419677734376,30.30598258972168,30.624
瑞博国际公寓,13127,120.10304260253906,30.308635711669922,114.848
方家花苑,32448,120.11603546142578,30.309711456298828,100.395
新城金镶玉,49100,120.11038970947266,30.324005126953125,133.942
和苑小区,42135,120.11119079589844,30.30577087402344,92.235
申瑞国际,19585,120.11012268066406,30.313756942749023,63.299
文三新村,57690,120.15176391601562,30.283185958862305,183.55
石灰桥新村,51348,120.1529769897461,30.291593551635746,202.99
融信杭州公馆,57579,120.13683319091795,30.29861259460449,57.317
邮电新村,61551,120.15514373779295,30.286407470703125,209.478
白荡海人家,49577,120.14932250976562,30.29511070251465,179.642
沈塘新村,58889,120.15534210205078,30.285499572753906,155.44
金都城市芯宇,53209,120.14395141601562,30.294816970825195,139.165
银马公寓,57348,120.14395904541016,30.293855667114254,149.062
御西湖,69005,120.13722229003906,30.29167175292969,141.49
建工新村,48855,120.15420532226562,30.2885799407959,174.593
兰庭国际,53675,120.14604949951172,30.28975486755371,156.298
武林门新村,57793,120.1564712524414,30.282716751098636,161.183
西溪河东,67500,120.14718627929688,30.286643981933594,155.037
华海园,49592,120.14757537841795,30.296497344970703,184.964
溪畔花园,49879,120.14517974853516,30.29572486877441,219.454
马塍路小区,70373,120.15481567382812,30.28158950805664,191.619
恒升花苑,51475,120.14983367919922,30.283172607421875,158.58
文萃苑,52378,120.13777923583984,30.2938232421875,165.76
武林花园,54783,120.15572357177734,30.279306411743164,213.127
中豪晴园,57026,120.13961029052734,30.293880462646484,187.533
郡枫华庭,48648,120.14653778076172,30.296321868896484,51.27
今日嘉园,57068,120.1394500732422,30.29567146301269,169.585
兴财名都苑,51285,120.14998626708984,30.29245567321777,246.414
窑背巷,55110,120.15338897705078,30.279088973999023,70.744
师苑新村,61634,120.14400482177734,30.28805351257324,33.404
日晖新村,77035,120.15428924560548,30.28940010070801,186.284
文欣苑,55544,120.14328002929688,30.288414001464844,211.755
文天公寓,54930,120.15391540527344,30.27776908874512,132.408
混堂巷,56114,120.1579132080078,30.280426025390625,139.534
华门自由21世纪公寓,39101,120.14161682128906,30.298429489135746,204.57
武林巷小区,67110,120.1530990600586,30.280845642089844,146.855
浙大宿舍,51946,120.1477508544922,30.29442596435547,165.741
保俶北路小区,62000,120.14701080322266,30.287363052368164,141.669
翠锦苑,39286,120.1325454711914,30.29904556274414,125.066
锦绣文苑,53252,120.1580047607422,30.27998352050781,164.55
西溪河下,52399,120.14801788330078,30.29760360717773,162.607
白荡海社区,49981,120.149169921875,30.29794311523437,173.833
德雅花园,34749,120.1416473388672,30.29698181152344,142.636
教工路95号,66323,120.14187622070312,30.28789138793945,169.584
松溪公寓,67772,120.15364837646484,30.277198791503906,177.0
世纪新城,47462,120.11962890625,30.289533615112305,47.058
雅仕苑,45119,120.1115951538086,30.29150199890137,309.981
星洲花园,53957,120.101318359375,30.297128677368164,144.698
金成花园,46635,120.1125717163086,30.289798736572266,51.275
嘉绿名苑,44765,120.12086486816406,30.286376953125,27.735
南都花园,40371,120.11036682128906,30.295000076293945,188.113
新金都城市花园,50465,120.10367584228516,30.291431427001953,213.015
高教新村,49682,120.10294342041016,30.29288101196289,145.903
物华小区,34259,120.1162567138672,30.29778289794922,35.913
恩济花苑,40268,120.11353302001952,30.28842544555664,227.445
嘉绿北苑,42923,120.1242904663086,30.28750228881836,255.945
桂花城,54039,120.10252380371094,30.287660598754886,178.631
湖畔花园,45214,120.10794830322266,30.294330596923828,160.895
紫桂花园,51086,120.11005401611328,30.28903770446777,214.286
东海名仕家园,48072,120.10845184326172,30.292516708374023,55.365
湖畔莲花港家园,40699,120.11583709716795,30.29672241210937,185.652
林语别墅,68718,120.09699249267578,30.2887020111084,154.322
嘉南公寓,53570,120.10037231445312,30.29306983947754,161.952
南都德迦,41876,120.10980987548828,30.287227630615234,194.402
府新花园,47187,120.0986785888672,30.28672981262207,141.009
嘉绿苑北区,44772,120.12300872802734,30.28443145751953,127.162
兰桂花园,48781,120.10684967041016,30.28914451599121,202.805
南都德迦西区,45724,120.1096420288086,30.28640174865723,157.462
紫林公寓,52382,120.09880828857422,30.29377746582031,148.549
天湖公寓,35184,120.11271667480469,30.294322967529297,163.278
文溪鼎园,47996,120.11164855957031,30.295787811279297,141.578
嘉绿福苑,38109,120.12069702148438,30.28762435913086,140.247
金都花园,37881,120.10496520996094,30.282270431518555,274.647
嘉绿苑南区,44816,120.12347412109376,30.28411865234375,63.978
申悦国际公寓,21011,120.10308074951172,30.307876586914066,142.719
春天花园,40100,120.10662841796876,30.294004440307614,246.949
天河西苑,38039,120.1113739013672,30.29708671569824,146.958
阳光地带,48856,120.09781646728516,30.293214797973636,119.749
皇朝城市花园排屋,47477,120.1017608642578,30.28022766113281,72.302
拱苑小区,28007,120.11457061767578,30.30384826660156,59.099
嘉绿景苑西园,37150,120.10718536376952,30.28205299377441,53.565
南都德迦东区,46491,120.11337280273438,30.28701019287109,183.75
湖畔花园别墅,49302,120.1094207763672,30.29355239868164,133.231
文二路36号,65540,120.15208435058594,30.28986358642578,93.405
元茂大厦,37669,120.12493133544922,30.28838539123535,90.302
香樟公寓,43207,120.11347198486328,30.286121368408203,158.093
金都新城,38269,120.11418151855469,30.283893585205078,191.025
黄龙金茂悦,48054,120.12118530273438,30.302400588989254,144.24
紫金公寓,38594,120.10819244384766,30.28445625305176,222.92
康乐新村,37036,120.1084976196289,30.28287506103516,249.529
金田花园,35140,120.10518646240234,30.28422737121582,154.747
沁雅花园,37761,120.11300659179688,30.28097152709961,198.48
中兴公寓,39512,120.10797882080078,30.28562355041504,196.775
嘉绿景苑,39777,120.10487365722656,30.277629852294922,155.166
府苑新村,44347,120.10059356689452,30.27276992797852,157.402
西荡苑,43303,120.10940551757812,30.277101516723636,60.283
丹桂公寓,44465,120.11468505859376,30.28089141845703,229.965
莲花新村西区,42946,120.11277770996094,30.278461456298828,61.958
紫金庭园,40637,120.10089111328124,30.27737617492676,63.534
黄龙公寓,32570,120.11930847167969,30.279460906982425,266.946
桂花城别墅,105528,120.10166931152344,30.28894424438477,80.975
西房秋水苑,44089,120.11592864990234,30.27985763549805,155.253
科技新村,38561,120.107421875,30.287004470825195,271.038
文苑小区,35280,120.11792755126952,30.296916961669922,26.225
西鉴枫景,47477,120.11255645751952,30.27559471130371,106.225
颐景园文新,43009,120.10466003417969,30.286237716674805,201.765
丹枫新村,42785,120.10655975341795,30.283239364624023,137.78
银桂花园,55503,120.10002136230469,30.28133583068848,160.34
城市心境,46412,120.10853576660156,30.273178100585934,132.152
桂花园,53766,120.1047592163086,30.28164291381836,108.539
香港城,40024,120.10833740234376,30.281362533569336,157.703
新安嘉苑,38300,120.11090087890624,30.274980545043945,133.197
皇朝城市花园,30786,120.10166931152344,30.280235290527344,132.35
美都新村,40918,120.11032104492188,30.28573226928711,132.747
金欣公寓,39969,120.10721588134766,30.281230926513672,127.044
省规划局宿舍,36320,120.10681915283205,30.281307220458984,129.202
阳光花园,41381,120.1020736694336,30.28135108947754,58.166
华星路97号院,45433,120.12865447998048,30.28541374206543,133.401
莲花新村东区,37968,120.11314392089844,30.27856063842773,135.63
骆家庄东苑,19485,120.10665893554688,30.291492462158203,138.046
明月公寓,33956,120.11053466796876,30.282472610473636,139.829
世纪西溪别墅,55907,120.09976196289062,30.282167434692386,51.998
云桂花园,49036,120.1047134399414,30.281604766845703,108.501
月桂花园,46743,120.11077117919922,30.28160095214844,101.288
筑品金座,36959,120.11256408691406,30.274736404418945,134.833
文鼎苑,63210,120.10147094726562,30.302040100097656,104.395
浙港国际酒店式公寓,27723,120.10292053222656,30.315507888793945,109.148
西溪诚园致诚苑,65865,120.08513641357422,30.298511505126953,125.64
禹洲滨之江,22010,120.12018585205078,30.15545082092285,49.155
浙大新村,63122,120.1327896118164,30.26697540283203,138.43
东日晴好,29324,120.09686279296876,30.14228630065918,63.825
荷花池头,53878,120.16609191894531,30.247373580932614,150.523
弥陀寺路小区,60372,120.156005859375,30.27175331115723,147.545
西湖公馆公寓,23558,120.10565185546876,30.172704696655273,55.17
西溪天堂·悦居公寓,34410,120.09821319580078,30.27455711364746,33.675
云栖蝶谷,53043,120.10896301269531,30.18261528015137,66.202
青芝坞,61574,120.12616729736328,30.26452827453613,130.586
马也美上,19807,120.08722686767578,30.152671813964844,106.94
鼎园九礼,35624,120.07058715820312,30.24609375,112.322
恒大商业中心,40118,120.11390686035156,30.165267944335934,125.038
嘉和花园,22363,120.04353332519531,30.22532844543457,31.046
金沙曲苑,34050,120.13384246826172,30.25431251525879,58.658
绿野春天叠翠谷,22082,120.01264190673828,30.201032638549805,20.0
双峰村,84633,120.12799835205078,30.24064636230469,78.97
四眼井,39181,120.14230346679688,30.221790313720703,73.025
西湖墅,0,120.10627746582031,30.17286872863769,25.468
融创河滨之城,57790,120.0683364868164,30.303794860839844,124.883
西溪蝶园,49497,120.06999969482422,30.29472541809082,122.545
西溪里,47246,120.06536102294922,30.297229766845703,112.8
万科西庐,54237,120.06359100341795,30.298480987548828,116.33
泰禾中央广场公寓,31339,116.32867431640624,39.72039031982422,25.14
西溪华府,44486,120.06079864501952,30.295795440673828,117.355
龙湖西溪天街,32750,120.07356262207031,30.29820251464844,27.5
西溪九号公寓,23739,120.06486511230469,30.284704208374023,53.07
西溪诚园正信苑,66874,120.08495330810548,30.296911239624023,51.635
西溪诚园守纯苑,65855,120.0862808227539,30.295440673828125,63.035
西溪融庄,40764,120.04621124267578,30.276159286499023,96.902
西溪新城市,33375,120.0649185180664,30.285171508789066,58.338
华策中心公寓,24393,120.07472229003906,30.306304931640625,31.754
西溪诚园知敬苑,67069,120.08905792236328,30.29372596740723,29.3
香溪,42372,120.0634765625,30.29591941833496,35.579
万科坤和玉泉,47497,120.07172393798828,30.24345588684082,120.18
富越香溪排屋,37485,120.0641632080078,30.295764923095703,27.61
西溪诚园公寓,72219,120.08732604980469,30.29503631591797,63.34
天元西溪锋尚,20751,120.09778594970705,30.280900955200195,102.789
坤和西溪里别墅,49326,120.06548309326172,30.29473876953125,138.965
西溪融庄排屋,40240,120.0503158569336,30.28168487548828,34.728
西溪诚园明礼苑,59664,120.08894348144531,30.29530143737793,25.25
华元天鹅堡酒店式公寓,24440,120.11194610595705,30.26972770690918,51.97
西溪逸境,38168,120.03009033203124,30.27963638305664,66.045
绿城西溪世纪广场公寓,26439,120.0780029296875,30.29912567138672,23.835
西溪路小区,55058,120.1055145263672,30.265640258789066,141.893
西湖家园公寓,26085,120.09571075439452,30.262807846069336,46.57
和庄,37788,120.07903289794922,30.26185417175293,30.335
大华新天地,31097,120.04158020019531,30.290414810180664,89.3
黄龙综合楼,50450,120.14151000976562,30.27246856689453,112.471
绿城西溪深蓝公寓,24742,119.98889923095705,30.14545822143555,46.725
西溪名园,30087,120.06348419189452,30.25898742675781,25.345
中交悦西溪别墅,41195,120.0384292602539,30.28734397888184,45.215
钱江西溪和景别墅,49858,120.1129379272461,30.270641326904297,137.902
钱江西溪和景,31429,120.11335754394531,30.270906448364254,27.58
天目山路118号,46710,120.11597442626952,30.27535057067871,115.486
天目山路116号,43434,120.1549835205078,30.280107498168945,141.445
药物研究所宿舍,25502,120.08973693847656,30.26032638549805,159.12
EAC国际公寓,60591,120.14330291748048,30.28095054626465,99.97
公元大厦,57269,120.13790893554688,30.270366668701172,88.545
文二新村,72168,120.1496124267578,30.289020538330078,178.77
中大文锦苑,68778,120.15081787109376,30.28573226928711,24.59
下宁巷,73781,120.1486358642578,30.287841796875,141.06
崇文公寓,68657,120.1533660888672,30.28698921203613,148.72
求智弄小区,71847,120.1506118774414,30.28911781311035,149.85
求智巷,79790,120.15007781982422,30.289587020874023,133.788
上宁新村,63361,120.14984893798828,30.2830867767334,144.435
马塍路33号,74125,120.15349578857422,30.28671455383301,118.261
梅苑阁小区,48831,120.1500473022461,30.29392433166504,151.485
文二路21号,74602,120.15210723876952,30.28975486755371,98.27
马塍路11号,55180,120.15422058105469,30.28219223022461,128.935
文三路103号院,43027,120.15229034423828,30.28399658203125,154.855
马塍路13号,0,,,28.934
马塍路37号,0,,,35.392
武林巷36号小区,0,,,27.864
文二路43号,65550,120.1513671875,30.28934097290039,118.581
群升万国天地,24647,,,26.602
钱塘ONE公寓,22189,120.123779296875,30.15505027770996,99.704
之江九里,34072,120.10147094726562,30.17201042175293,48.626
嘉里云荷廷,35242,120.11080932617188,30.17663955688477,34.48
之江之芯,23142,120.10424041748048,30.16423988342285,31.139
大家之江悦,32816,120.1033935546875,30.167051315307614,127.021
西湖花园,36691,120.11400604248048,30.18808937072754,116.91
公元沐桥,26384,120.1042938232422,30.17216491699219,123.325
恒大水晶城,34286,,,25.0
九树公寓,50000,120.1151351928711,30.18824958801269,113.141
公元沐桥排屋,41896,120.1044464111328,30.17038536071777,25.97
之江九里别墅,120532,120.10105895996094,30.171483993530273,74.98
和昌云潮公寓,24008,120.11456298828124,30.17793273925781,47.89
新帝朗郡,26423,120.07469940185548,30.169397354125977,49.245
绿城之江1号,33827,120.07966613769531,30.17120361328125,72.895
金街美地公寓,22565,120.08584594726562,30.152570724487305,77.421
阳明谷,71127,120.0921630859375,30.175447463989254,55.263
篁外,28091,120.06832885742188,30.1495304107666,179.21
九溪玫瑰园别墅,110793,120.11228942871094,30.188215255737305,25.81
中天九溪诚品,35499,120.10464477539062,30.168367385864254,120.988
禹洲滨天地,21263,,,0.0
融科瑷骊山,29602,120.07135772705078,30.14846611022949,109.535
祥生云溪新语,33631,120.1029281616211,30.16932678222656,27.94
云溪香山,27094,120.07938385009766,30.15549468994141,131.205
南都西湖高尔夫别墅,56243,120.07711029052734,30.17885589599609,133.305
贝利云栖中心公寓,22500,120.11695098876952,30.18696403503418,27.345
中天之江诚品,34221,120.0750961303711,30.14975929260254,112.081
绿城云栖玫瑰园别墅,123648,120.08139038085938,30.17464637756348,68.925
天阳云筑,30604,120.07190704345705,30.14995574951172,51.865
赞成岭上花苑,26870,120.0662612915039,30.151329040527344,36.236
玖珑山,28447,120.06658172607422,30.148283004760746,52.47
梧桐燕庐,31370,120.09841918945312,30.141460418701172,146.115
星云公寓loft,21511,120.19549560546876,30.346790313720703,52.52
篁外山庄,30080,120.06836700439452,30.149545669555664,185.357
新西湖花园别墅,51516,120.07826232910156,30.17884063720703,99.975
梦湖山庄公寓,25785,120.08214569091795,30.17689514160156,125.355
丽晶美庐别墅,80225,120.10140228271484,30.177324295043945,63.587
东方苑,41674,120.14603424072266,30.20538330078125,112.66
绿城云栖玫瑰园,109562,120.08338165283205,30.17531776428223,77.495
樱花小筑,31111,120.09709167480469,30.315906524658203,106.39
云栖蝶谷别墅,90692,120.1338348388672,30.19987678527832,57.945
云溪印象,19019,120.07839965820312,30.15329360961914,103.715
枫丹白露,33526,120.08296966552734,30.18031311035156,47.705
新帝朗郡别墅,27655,120.07381439208984,30.170663833618164,53.36
梦湖山庄,32367,120.08724975585938,30.17133331298828,107.597
润和山庄,41378,120.16270446777344,30.20920372009277,90.55
美上商业中心,20729,120.08789825439452,30.152820587158203,54.182
万美摩登中心公寓,19146,120.07623291015624,30.14898109436035,57.479
新西湖花园,28415,120.07826232910156,30.17884063720703,123.239
钱江之江新天地,18396,120.09479522705078,30.13718032836914,85.72
赞成岭上排屋,27807,120.0662612915039,30.151329040527344,61.966
景月湾排屋,40436,120.08956146240234,30.17439079284668,107.819
采荷新村,48080,120.19943237304688,30.259002685546875,190.956
双菱新村,47854,120.20061492919922,30.261394500732425,174.155
凯旋门,61421,120.1975555419922,30.261877059936523,133.21
采荷玉荷,47183,120.20608520507812,30.261117935180664,26.78
商教苑,47981,120.1979522705078,30.252092361450195,32.735
采荷芙蓉,49410,120.20177459716795,30.25919342041016,159.74
采荷洁莲,48194,120.2026824951172,30.25898551940918,52.842
紫晶商务城,19586,120.19808959960938,30.264467239379886,184.975
采荷东区,44791,120.21022033691406,30.260576248168945,176.865
采荷人家,47900,120.21356964111328,30.26156997680664,57.003
红菱新村,48782,120.20679473876952,30.26215171813965,231.962
华家池校区家属宿舍,43396,120.19886016845705,30.2736930847168,99.555
采荷翠柳,48357,120.2031478881836,30.26150131225586,31.717
采荷绿萍,40269,120.20571899414062,30.263654708862305,204.403
天阳凤起,54047,120.22372436523438,30.27073860168457,132.434
清泰小区,47707,120.19849395751952,30.254430770874023,39.795
采荷青荷苑,47247,120.20378112792969,30.25605773925781,55.235
建电新村,49470,120.19818115234376,30.262474060058594,159.148
采荷紫藕,49005,120.20362091064452,30.262775421142575,166.803
花园铁路新村,48718,120.19718933105469,30.25787353515625,61.15
三新家园,30039,120.21056365966795,30.267961502075195,163.176
静怡花苑,42796,120.20808410644531,30.24916648864746,133.461
采荷金谷,46057,120.20278930664062,30.259258270263672,161.035
采荷青莼,47338,120.20661926269531,30.25935935974121,211.753
新城国际花园,53695,120.22447967529295,30.261646270751953,98.485
青春都市公寓,51632,120.20564270019531,30.265396118164066,120.175
采荷路35号,48306,120.20010375976562,30.25728988647461,62.594
静安花园,45603,120.20785522460938,30.249256134033203,130.195
思安坊,36741,120.20621490478516,30.247751235961914,125.799
采荷小区,44685,120.20188903808594,30.25975799560547,198.265
居安坊,37613,120.20768737792969,30.246490478515625,264.21
元丰庆春御府,54421,120.1990966796875,30.26296043395996,138.294
采荷支路小区,41470,120.205078125,30.255258560180664,96.934
采荷路17号,39971,120.20391082763672,30.25749397277832,260.483
采荷路33号,59732,120.2010498046875,30.25674057006836,68.219
采荷路14号,33869,120.20355987548828,30.25792121887207,175.251
邮政职工公寓,60912,120.19608306884766,30.257164001464844,63.782
采荷南苑,44716,120.21372985839844,30.25615692138672,144.116
采荷嘉业大厦,28751,120.21427154541016,30.26227188110352,54.742
采荷二区,54512,120.20468139648438,30.26284217834473,186.026
金色黎明,41526,120.22901153564452,30.31325912475586,115.446
龙湖金地商置都会风华,40523,120.22711944580078,30.306020736694336,23.422
滨江德信东方星城,41553,120.22166442871094,30.308408737182614,53.759
德信东望,39182,120.23382568359376,30.296937942504886,158.746
东渡酩悦,32333,120.22506713867188,30.29882621765137,39.276
远洋心里,35493,120.2536392211914,30.312744140625,120.965
华润中央车站广场,28301,120.22193908691406,30.300159454345703,20.0
万科公园大道,41798,120.2212371826172,30.316219329833984,97.593
德信浙旅东宸,41714,120.22461700439452,30.304582595825195,162.0
世茂钱塘天誉,39992,120.21733856201172,30.31159019470215,32.036
紫台,35298,120.25164031982422,30.312589645385746,93.06
天阳尚城国际,39361,120.2052230834961,30.30808448791504,141.72
天阳文晖,41172,120.2082290649414,30.30711936950684,167.92
红街天城公寓,17687,120.21431732177734,30.297983169555664,96.515
中凯东方红街,37755,120.2130126953125,30.30036163330078,150.455
广宇东港空间,32544,,,27.5
梧桐语,34452,120.25328063964844,30.318279266357425,30.335
草庄,40360,120.22472381591795,30.315601348876953,153.194
天城府,40958,120.20330810546876,30.303991317749023,57.0
德信杭州之翼公寓,26941,120.22967529296876,30.30096435546875,33.709
恒祺克拉天玺,25810,120.21998596191406,30.3027458190918,63.284
三湘印象森林海尚,40181,120.23365020751952,30.30253028869629,27.5
东方御府,50872,120.23483276367188,30.27965545654297,104.256
东港嘉苑,33534,120.21453094482422,30.307092666625977,60.395
交通晓时代,35197,120.25019073486328,30.30704498291016,172.4
东港嘉苑三区,33150,120.21858978271484,30.30443382263184,152.332
铁建国际花园,35316,120.25094604492188,30.318084716796875,58.777
新和嘉苑,35165,120.22624206542969,30.298076629638672,149.346
淮矿东元府,38240,120.2334442138672,30.293476104736328,33.285
保利中央公馆,50377,120.2133560180664,30.28220367431641,33.213
华润置地中央车站广场,28325,120.22356414794922,30.29898452758789,32.0
越秀亲爱里,31693,120.26353454589844,30.31056022644043,30.548
杭州港龙城公寓,28189,120.23267364501952,30.30040168762207,55.0
远洋万和四季,40141,120.2232666015625,30.30637359619141,58.755
招商Ipark,34972,,,27.5
天庐苑,33394,120.20963287353516,30.302431106567386,148.47
浙商国际中心,22763,,,25.0
紫玉福邸,40329,120.20685577392578,30.30233192443848,150.87
东港嘉苑二区,33548,120.21585845947266,30.30587577819824,124.253
新风丽都,34652,120.21244049072266,30.296802520751953,70.64
罗兰香谷,24308,120.24403381347656,30.37834358215332,132.375
北城枫景园,25572,120.24649047851562,30.36829948425293,114.689
阳光逸城,25599,120.24508666992188,30.35531234741211,103.425
滨江同协金座公寓,27286,120.21878814697266,30.34555435180664,57.458
上东臻品,30919,120.23619079589844,30.36374282836914,109.805
丁桥兰苑,23175,120.2405014038086,30.353015899658203,129.105
新城红郡,25138,120.23524475097656,30.377296447753906,64.348
中兴久睦苑,24693,120.2414779663086,30.37063407897949,99.665
瑞立辰秀嘉园,23715,120.24872589111328,30.36135482788086,128.125
联合格里,29494,120.24127197265624,30.36449813842773,152.482
上东名筑,31412,120.23223876953124,30.367420196533203,108.67
新城湾上风华,23706,120.23194885253906,30.374252319335934,122.004
名景台,31162,120.21961975097656,30.349950790405273,98.69
云锦城,24996,120.23688507080078,30.37775802612305,62.847
玺之湾,28098,120.23492431640624,30.351652145385746,127.984
阳光城翡丽湾,29667,120.21243286132812,30.352813720703125,121.401
龙湖武林九里,32656,120.22352600097656,30.34560203552246,81.166
长睦邻里人家,25618,120.2398910522461,30.36577415466309,136.949
郡枫绿园,26638,120.22624206542969,30.34782218933105,130.242
中豪四季公馆,31511,120.24340057373048,30.357553482055664,123.145
丁桥颐景园,29495,120.23654174804688,30.35934066772461,142.423
金地格林格林,26332,120.24666595458984,30.37739181518555,78.336
天阳观筑,29261,120.2428970336914,30.36533546447754,125.758
上东领地,30578,120.2333755493164,30.362667083740234,154.239
昆仑天籁,31455,120.24275970458984,30.36034965515137,143.133
冠宇隽园,29240,120.23966217041016,30.357120513916016,117.339
北城铭苑,28265,120.23882293701172,30.351659774780273,148.599
置鼎明珠1号,21526,120.23650360107422,30.358173370361328,155.504
上东城,30091,120.23522186279295,30.36637687683105,157.061
东承府,30581,120.23468017578124,30.366254806518555,70.158
丁桥景园,23656,120.23909759521484,30.35549736022949,182.318
城基后珠农港苑,25859,120.24496459960938,30.362070083618164,123.135
美都雅苑,23100,120.24849700927734,30.363874435424805,123.585
丁兰商业中心,10989,120.23793029785156,30.359390258789066,113.046
华天苑,24192,120.25149536132812,30.36935997009277,104.302
天阳晴朗,33734,120.23103332519531,30.36153793334961,121.881
远洋香奈,30212,120.22545623779295,30.35027313232422,129.556
卓越蔚蓝领秀,28466,120.24617767333984,30.3736515045166,60.304
广大融城印象,28750,120.2328643798828,30.363910675048828,58.714
丁桥家苑,24866,120.23893737792969,30.355243682861328,65.385
南肖埠北景西苑,40652,120.19851684570312,30.26698112487793,162.6
南肖埠庆春苑,41866,120.19873046875,30.265174865722656,191.981
南肖埠华家池,40743,120.1994171142578,30.266498565673828,154.083
金秋花园,37018,120.2056655883789,30.270450592041016,150.294
凯林巷小区,39107,120.19969177246094,30.27087211608887,123.879
凯旋路小区,43983,120.1970672607422,30.266584396362305,159.841
广茵大厦,18972,120.19969177246094,30.26869964599609,129.742
紫玉公馆,41278,120.19719696044922,30.27551651000977,34.192
南肖埠庆和苑,45130,120.20044708251952,30.26427459716797,157.26
农业厅第三住宅区,45782,120.20259857177734,30.27100372314453,116.574
浙报宿舍,44191,120.1989517211914,30.27031517028809,146.392
凯旋路174号,52064,120.19742584228516,30.26691246032715,141.744
庆春东路62号院,34450,120.20103454589844,30.263925552368164,172.281
龙湖大家九龙仓璟宸府,38005,120.23871612548828,30.31336784362793,30.0
曙光之城,42169,120.2140884399414,30.30994987487793,164.715
宋都时间国际公寓,20311,116.45645141601562,39.96854019165039,44.91
玉兰公寓,43691,120.20734405517578,30.297761917114254,154.078
原筑壹号,27173,120.24049377441406,30.31437492370605,34.556
浅草名苑,31281,120.22553253173828,30.31854248046875,137.001
中旅·城仕公馆,30937,120.2223663330078,30.353670120239254,60.769
融创玖樟台,35538,120.21717834472656,30.31584358215332,113.271
东方丽都花苑,41546,120.2067642211914,30.298248291015625,159.216
原筑壹号公寓,25000,120.2405776977539,30.31437110900879,59.831
大世界五金城,11667,120.22933197021484,30.33953666687012,86.9
丁兰花苑,15167,120.23143768310548,30.35643577575684,36.084
赵家花苑,27436,120.22817993164062,30.362403869628906,4.202
笕桥花苑,26897,120.22754669189452,30.31999969482422,127.813
天成路武警宿舍,32815,120.21073150634766,30.29288101196289,110.38
万事利公寓,41212,120.22789001464844,30.33019256591797,123.24
原筑壹号排屋,24452,120.23944854736328,30.314239501953125,27.945
龙湖滟澜山,36091,120.33319854736328,30.31867408752441,145.605
铭和苑,23751,120.3396987915039,30.324321746826172,118.675
柠檬郡,29076,120.32742309570312,30.30338478088379,152.617
晓城天地,11964,120.33869171142578,30.31541633605957,102.455
德信早城,37531,120.3362045288086,30.320077896118164,132.444
金沙湖1号公寓,21841,120.33653259277344,30.314605712890625,140.95
铭都雅苑,30056,120.34134674072266,30.31282043457031,74.719
四季广场,16087,120.34466552734376,30.32404518127441,117.26
金沙阳光,26477,120.34071350097656,30.30787849426269,305.375
中豪七格,18848,120.32909393310548,30.30501747131348,140.105
东岸嘉园,29458,120.33634185791016,30.30846977233887,172.255
名城湖左岸,40926,120.3281021118164,30.31894111633301,28.37
御观邸,41986,120.33715057373048,30.31394004821777,91.93
德信中外公寓,36733,120.337158203125,30.31940460205078,117.471
松合幸福雅苑,27750,120.3223114013672,30.321277618408203,128.31
泰美国际大厦,20274,,,22.5
中沙金座,11736,120.33712768554688,30.31219482421875,98.093
锦湖家园,28978,120.33332061767578,30.31240653991699,129.98
金沙国际公寓,15836,120.32537078857422,30.32507514953613,131.315
东方铭楼,16905,120.33911895751952,30.314363479614254,182.008
湖景居,29757,120.3220443725586,30.309850692749023,59.399
龙湖滟澜星座公寓,18959,120.33279418945312,30.31473731994629,47.525
东沙铭城,12025,120.3404312133789,30.310216903686523,62.481
智格豪城,11797,120.33616638183594,30.30138397216797,102.186
东部国际商务中心公寓,15883,120.32998657226562,30.31617927551269,109.684
头格江景家园一区,25607,120.31238555908205,30.30643653869629,34.796
财通中心,18837,120.34127044677734,30.31506538391113,164.23
新沙家园,26355,120.33979034423828,30.32258605957031,88.246
幸福家园,19416,120.3222198486328,30.30407524108887,58.494
新元金沙城,27250,120.34005737304688,30.32013893127441,93.975
松合幸福里,20373,120.32357788085938,30.32433319091797,184.273
高沙百盛苑,25028,120.34193420410156,30.325157165527344,114.028
金沙家园,28560,120.34010314941406,30.322641372680664,84.243
新怡家园,23041,120.3334732055664,30.30267906188965,24.47
北苑大厦,18412,120.33924865722656,30.311565399169922,72.671
东海橙对,22651,120.32644653320312,30.30316925048828,141.039
东海金沙T台,12460,120.32779693603516,30.301713943481445,135.942
华沙公寓,18415,120.33859252929688,30.30782890319824,279.075
松合时代商城公寓,38493,120.3192138671875,30.320762634277344,138.57
湾南德盛东苑,23704,,,27.5
新城时代广场,23181,120.21368408203124,30.269929885864254,122.915
景芳三区,38576,120.21065521240234,30.27584648132324,229.41
景芳六区,38445,120.21420288085938,30.27744483947754,163.813
景芳五区,37621,120.21865844726562,30.27466583251953,190.99
景芳四区,38073,120.21308135986328,30.27815055847168,56.889
中央公馆,49358,120.2133560180664,30.282175064086914,180.02
景芳二区,40132,120.20916748046876,30.2755184173584,209.88
景芳一区,39050,120.21222686767578,30.27314758300781,154.029
景芳新五区,39069,120.21573638916016,30.27559471130371,204.949
景芳水湘苑,37229,120.21795654296876,30.27741813659668,148.091
东润枫华,51731,120.22425079345705,30.27714920043945,160.079
景芳东区,38241,120.22126770019531,30.27465629577637,137.39
中豪湘座,26642,120.2192611694336,30.280134201049805,171.64
景苑公寓,36539,120.21459197998048,30.27574920654297,155.8
广景苑,47487,120.21166229248048,30.272008895874023,122.58
东城印象,52273,120.2147979736328,30.2791748046875,125.55
水湘人家,33185,120.2217025756836,30.28047180175781,127.25
省水利厅宿舍,43922,120.20482635498048,30.271808624267575,145.115
景芳新二区,51303,120.21101379394531,30.27531242370605,171.145
秋涛北路小区,38590,120.20665740966795,30.27728080749512,144.804
三叉社区,44985,120.20635223388672,30.27103614807129,142.455
三叉新村二区,38922,120.20831298828124,30.268495559692386,144.284
水湘公寓,32713,120.22069549560548,30.28000259399414,59.485
五福新村,32805,120.21353149414062,30.277687072753906,168.876
五福二苑,32807,120.22093963623048,30.26797866821289,115.681
五福一苑,32828,120.22238159179688,30.26762962341309,278.922
新塘路小区,32815,120.214111328125,30.27723503112793,59.638
新塘家园东区,36446,120.21990203857422,30.281818389892575,103.871
新塘家园西区,46846,120.21620178222656,30.28017234802246,132.252
璞玉公馆,22356,120.28834533691406,30.32245635986328,55.024
相江公寓,32107,120.29231262207031,30.30393218994141,115.544
悦麒美寓,34913,120.28543090820312,30.302284240722656,162.835
泊林印象,32672,120.29304504394531,30.312578201293945,131.744
多立方,30345,120.27261352539062,30.32726287841797,49.966
阳光国际,32509,120.28059387207031,30.301305770874023,28.72
招商雍和府,34302,120.2549285888672,30.305917739868164,98.502
鑫运时代金座,20869,120.27901458740234,30.3139591217041,123.383
丽江公寓,36630,120.28809356689452,30.303638458251953,188.593
金雅苑,26512,120.2885971069336,30.313173294067386,78.89
蓝桥名苑,24091,120.28334045410156,30.3095645904541,164.405
新江花园,24671,120.27954864501952,30.30966567993164,178.0
滨江铂金海岸,34854,120.28997039794922,30.301931381225586,32.498
罗兰春天,29795,120.27709197998048,30.33225440979004,108.005
九润公寓,30225,120.2752685546875,30.331579208374023,128.185
魅力之城,29807,120.26348114013672,30.32617950439453,223.25
泊林公寓,31501,120.29022979736328,30.30864524841309,147.75
招商雍华府,36424,120.2564468383789,30.3090934753418,78.45
左邻右舍,29610,120.28864288330078,30.31085205078125,231.555
海棠公寓,31808,120.26800537109376,30.32388114929199,186.059
红苹果,26625,120.29093170166016,30.30841445922852,224.301
世茂东壹号,33167,120.25344848632812,30.30811309814453,63.749
天阳九筑,33562,120.26564025878906,30.328128814697266,155.32
金地玖峯汇,30962,120.2779541015625,30.32707405090332,30.0
九月庭院,27127,120.2931900024414,30.30993461608887,166.254
昆盛肖邦,28118,120.27864074707031,30.33021545410156,61.82
圣奥领寓,31425,120.28726959228516,30.30899810791016,168.106
九洲芳园,29661,120.28939819335938,30.30980491638184,188.307
香滨湾花园,30163,120.27518463134766,30.31582069396973,191.49
地铁东城广场,19777,120.28467559814452,30.316537857055664,61.612
海景城,26127,120.2901382446289,30.30446815490723,59.925
蓝桥景苑,24672,120.28569793701172,30.31450462341309,63.204
圆梦园,34077,120.2791748046875,30.2988224029541,69.391
汇盛德堡,29722,120.26628112792969,30.31943130493164,36.489
圆梦园别墅,34841,120.2794418334961,30.29977035522461,60.215
圆梦园公寓,31560,120.27887725830078,30.29991340637207,32.371
东都公寓,25551,120.27183532714844,30.30845832824707,60.16
东大门公寓,20815,120.29033660888672,30.320785522460934,45.348
风林公寓,27304,120.2704620361328,30.3078670501709,63.116
阳光景台,27003,120.2783203125,30.303607940673828,53.675
凯旋新村,48057,120.19596862792969,30.258831024169922,63.667
金牛坊,46271,120.1961441040039,30.26112937927246,54.905
新安铭苑,37081,120.1952896118164,30.28746223449707,31.065
采荷紫园,51193,120.19634246826172,30.259132385253906,54.52
凯旋路34号,46276,120.1980438232422,30.268024444580078,39.019
红树林花园,38553,120.1958236694336,30.28888893127441,61.523
汇鑫枫景苑,46347,120.20834350585938,30.26698112487793,38.478
人民社区,47583,120.19666290283205,30.25934410095215,61.652
华景公寓,43066,120.19666290283205,30.27072906494141,36.875
凯旋路104号,53046,120.19703674316406,30.25930595397949,61.48
凯旋路110号,50540,120.19738006591795,30.26024627685547,29.995
华景北苑,47093,120.1967544555664,30.27018928527832,45.046
华景南苑,45163,120.1966781616211,30.26772880554199,38.905
景秋公寓,44981,120.20510864257812,30.27001953125,84.319
金兰池社区,45847,120.19928741455078,30.26719665527344,31.19
健风大厦,47040,120.20751190185548,30.260263442993164,53.995
凯旋公寓,52338,120.19660949707031,30.254756927490234,35.655
凯景公寓,46452,120.19481658935548,30.251596450805664,62.816
龙生凯旋花园,47563,120.19752502441406,30.266021728515625,34.415
农药厂宿舍,41089,120.20049285888672,30.29003715515137,27.365
庆春门社区,51316,120.21060943603516,30.27341270446777,64.892
人民新村,52625,120.19683074951172,30.25996971130371,37.335
宋都梅苑人家,46317,120.19601440429688,30.25680160522461,75.596
商教社区,62195,120.1975555419922,30.25281143188477,39.97
双菱路179号,62214,120.20194244384766,30.268259048461914,74.009
浙江交运大厦,34454,120.20719146728516,30.278676986694336,35.93
滨江华家池,48361,120.19920349121094,30.27970123291016,50.92
南肖埠小区,39999,120.20133972167969,30.26517677307129,34.921
南肖埠御景苑,53991,120.2042999267578,30.26457977294922,45.37
南肖埠景和苑,42695,120.20571899414062,30.26604461669922,31.405
新城市广场,19004,120.20628356933594,30.26756858825684,27.71
南肖埠文景苑,45978,120.20133209228516,30.26980209350586,55.781
南肖埠北景东苑,37267,120.20518493652344,30.26871681213379,25.005
南肖埠二小区,46452,120.2053680419922,30.26398277282715,57.376
阳光城普升,33306,120.25157928466795,30.31681632995605,25.825
万科中央公园,39736,120.23410034179688,30.30044174194336,56.313
东亚新干线公寓,25714,120.22747039794922,30.30599975585937,25.03
三花国际公寓,29140,,,46.97
新中宇维萨,42753,120.23255157470705,30.29853820800781,28.993
华家竹园,33143,120.2517547607422,30.29783058166504,45.3
普福公寓,26972,120.2547607421875,30.3166618347168,34.388
五堰庙,29982,120.2559814453125,30.299060821533203,50.755
兴隆二区,32807,120.2381362915039,30.2974910736084,33.61
云峰二区,32815,120.23497772216795,30.28781318664551,61.34
云峰一区,32705,120.2313232421875,30.28219795227051,36.563
云峰三区,34281,120.2375717163086,30.28513336181641,54.055
云峰家园,36089,120.23214721679688,30.28615951538086,31.683
云河家园,39381,120.22496795654295,30.28480339050293,57.115
章家坝东区,39388,120.24243927001952,30.48930931091309,27.835
中远小区,32815,120.214111328125,30.27723503112793,47.39
绿城留香园,42017,120.23800659179688,30.27840614318848,25.84
万象城悦玺,42653,120.22055053710938,30.259506225585934,48.385
东方君悦,34389,120.2266616821289,30.257015228271484,24.36
金基晓庐,54726,120.22614288330078,30.26408386230469,48.52
融创大家侯潮府,68628,120.19113159179688,30.230987548828125,32.825
东方润园,65867,120.22896575927734,30.260149002075195,49.185
中企御品湾,38323,120.22384643554688,30.285846710205078,28.91
万象城悦府,60338,120.22377014160156,30.25918197631836,44.87
大家钱塘府,55750,120.22464752197266,30.277631759643555,25.605
盛世钱塘,52765,120.22920989990234,30.26470947265625,51.18
城市之星,61178,120.2113265991211,30.24677276611328,26.535
德信大家钱江府,40821,120.2303466796875,30.288801193237305,51.135
杭州来福士广场公寓,34808,120.21958923339844,30.2547664642334,26.03
御道路一号,50791,120.24068450927734,30.275739669799805,54.47
日信国际,39108,120.20166778564452,30.24013328552246,28.725
向江来时代中心公寓,31553,120.22721099853516,30.284914016723636,53.18
百大绿城,33085,120.21037292480469,30.2657470703125,27.085
城市之星(50年),45186,120.20994567871094,30.246196746826172,27.85
世包国际中心公寓,38952,120.21299743652344,30.24304962158203,49.07
万科大都会79号,70803,120.23665618896484,30.272687911987305,31.89
和谐嘉园,45001,120.21820068359376,30.260351181030273,26.755
钱塘航空大厦,26240,120.2158203125,30.243059158325195,54.135
水岸帝景,47507,120.23054504394531,30.261661529541016,27.61
新城国际,53454,120.22306823730469,30.26229286193848,55.88
钱江国际时代广场,24166,120.21207427978516,30.245702743530273,23.965
钱江三苑,48659,120.2210693359375,30.264577865600586,59.13
蔚蓝公寓,56178,120.21065521240234,30.27020835876465,25.555
钱江六苑,54423,120.21692657470705,30.266510009765625,58.185
金隅中铁诺德都会森林,54170,120.21668243408205,30.284093856811523,8.638
杭州高德置地广场,32859,,,30.0
钱江七苑,43526,120.21673583984376,30.26789855957031,33.284
融创涌清府,36110,120.22491455078124,30.282304763793945,48.805
万银国际,29000,120.22516632080078,30.257768630981445,33.747
常青公寓,31611,120.21112060546876,30.25190544128418,22.19
钱江四苑,46088,120.2199249267578,30.26589584350586,59.932
泛海国际,45438,120.21758270263672,30.246740341186523,29.92
海运都会钱塘,43478,120.18377685546876,30.21910095214844,67.49
钱江商务广场,37494,120.21693420410156,30.24275207519531,30.94
宋都天润,37472,120.28059387207031,30.301307678222656,67.655
UDC时代大厦公寓,45253,120.224365234375,30.25014305114746,26.54
运新花苑,50171,120.2316665649414,30.27897071838379,27.085
三堡东苑,25433,120.22897338867188,30.27742004394531,47.785
三堡南苑,32815,120.22591400146484,30.27199935913086,38.514
三堡社区,32815,120.22468566894531,30.271764755249023,47.54
三堡北苑,32831,120.2231674194336,30.274324417114254,35.524
三堡家园,32826,120.22447967529295,30.269155502319336,51.41
三里亭苑三区,33172,120.19569396972656,30.298946380615234,38.432
三里家园三区,31165,120.19890594482422,30.30330848693848,47.35
三里亭四区,33595,120.1957550048828,30.3012752532959,27.95
三里新城兰苑,33988,120.1947784423828,30.29538345336914,51.066
首开德胜上郡,34350,120.19776153564452,30.313724517822266,25.61
锦润公寓,40353,120.20672607421876,30.30669403076172,55.43
三里亭二区,33303,120.2002410888672,30.30142593383789,28.94
三里家园一区,33872,120.19586944580078,30.306507110595703,54.505
蓝天城市花园,35073,120.19615936279295,30.290815353393555,27.005
三里新城桂苑,33020,120.19892120361328,30.29564094543457,51.285
三里亭苑一区,33787,120.19756317138672,30.29809188842773,29.845
三里家园二区,31859,120.1951141357422,30.30355262756348,49.405
神州白云大厦,15775,120.19599151611328,30.290128707885746,26.95
三里新城荷苑,34374,120.19417572021484,30.29408264160156,124.275
三里家园,34005,120.19572448730469,30.3031005859375,106.99
广宇水岸雅苑,32748,120.19690704345705,30.30428504943848,130.92
蓝天公寓,42791,120.19534301757812,30.2928409576416,143.8
三里新城,37069,120.1962890625,30.296443939208984,302.78
广利佳苑,31920,120.1982192993164,30.30164909362793,93.51
三里新城橘苑,32991,120.20121002197266,30.29803276062012,148.665
机场路一巷小区,31454,120.19880676269531,30.293046951293945,127.045
三里新城竹苑,32275,120.19705963134766,30.29758071899414,112.4
天城铭苑,32078,120.19187927246094,30.28723526000977,96.59
百合公寓,28898,120.20115661621094,30.30202674865723,132.575
钱塘沁园,34790,120.19971466064452,30.293901443481445,113.975
三里新城柳苑,28834,120.199951171875,30.29700469970703,128.555
杭州大润城,22466,120.20040130615234,30.262908935546875,63.33
三里亭小区,35498,120.19738006591795,30.300331115722656,157.906
三里新城梅苑,33557,120.20124053955078,30.296157836914066,98.05
佰富时代中心公寓,15956,120.20523834228516,30.29759788513184,138.799
四海花城,46830,120.20726776123048,30.26928329467773,75.705
三里亭工农路小区,39406,120.19954681396484,30.29828453063965,150.73
三里新城东升苑,38987,120.19718170166016,30.29511260986328,38.649
三里亭东苑,39110,120.20508575439452,30.299976348876953,255.93
夕照新村,48442,120.2015609741211,30.25082778930664,209.735
凯旋苑,48162,120.19935607910156,30.25551986694336,63.11
观音塘小区,41990,120.21068572998048,30.25051498413086,141.052
茶厂宿舍,59736,120.20067596435548,30.254112243652344,63.935
三叉花苑,55914,120.21638488769531,30.26468276977539,134.094
四季星座,46830,120.19991302490234,30.25013542175293,125.225
塘苗新村,39961,120.2057647705078,30.256052017211914,88.711
原筑悦庄,20899,120.2415008544922,30.313575744628906,97.74
中豪五星国际,26455,,,36.5
五堡三区,32815,120.24085235595705,30.29209899902344,94.05
五堡一区,32815,120.2478256225586,30.28735160827637,169.804
五堡二区,32815,120.24639892578124,30.28377723693848,124.92
五堡四区,32815,120.24481201171876,30.28761863708496,161.328
五福亭一区,31215,120.25328063964844,30.28954315185547,117.495
五福亭二区,25991,120.2522201538086,30.28772735595703,54.505
四季风景,25957,120.35340881347656,30.308860778808594,165.36
元成小时代,14596,120.3512191772461,30.333518981933594,98.09
金地宋都都会钱塘,23743,120.39401245117188,30.336414337158203,9.146
清雅苑,20093,120.370361328125,30.31936836242676,242.695
盛泰名都公寓,25814,120.3540267944336,30.31031608581543,95.253
东部之星,16151,120.39359283447266,30.33812141418457,25.0
大都文苑风情,24720,120.34974670410156,30.314699172973636,138.761
东海未名园,25503,120.35653686523438,30.31306076049805,291.635
西子阳光新城,12270,120.35376739501952,30.31278419494629,120.876
东盛家园,24425,120.34705352783205,30.33144760131836,55.67
和达城,33752,120.35338592529295,30.315393447875977,170.447
精欧荣寓,26781,120.35746002197266,30.30842399597168,174.335
盛泰时代山,16246,120.36278533935548,30.312183380126953,35.122
16街区,17069,120.35899353027344,30.3154411315918,55.91
福雷德广场,22008,120.35462951660156,30.32304573059082,34.465
盛泰名都住宅,26356,120.35427856445312,30.31065559387207,52.29
香榭里花园,26700,120.35243225097656,30.31198310852051,133.286
艾肯金座,12204,120.35303497314452,30.322811126708984,110.76
北银公寓,23693,120.35071563720705,30.31246757507324,176.841
月雅苑,28808,120.3568344116211,30.316192626953125,276.18
东城大厦,10355,120.34526824951172,30.33060646057129,74.956
四季名门城市公寓,23398,120.36042785644531,30.30925178527832,108.455
裕园公寓,24438,120.35079956054688,30.309606552124023,185.456
之江铭楼,9741,120.35142517089844,30.30828666687012,115.181
和达城公寓,17185,120.35386657714844,30.315940856933594,105.184
下沙文汇苑,23211,120.35118865966795,30.311750411987305,128.365
康莱特公寓,15034,120.35594940185548,30.31260108947754,88.035
华顺别墅,32609,120.35237121582031,30.310890197753906,34.595
瓯江综合楼,23513,120.35702514648438,30.3128662109375,128.705
元成恒盛公寓,23035,120.34949493408205,30.33178520202637,70.975
保利东湾,24399,120.3791046142578,30.27832794189453,243.015
世茂江滨花园,22323,120.38921356201172,30.28922462463379,168.134
侨福一品高尔夫,16251,120.41263580322266,30.339927673339844,53.055
盈都君悦,14595,120.39676666259766,30.36017417907715,34.23
观澜时代,21624,120.37545776367188,30.27414894104004,103.09
野风海天城,24148,120.39202880859376,30.30552864074707,157.85
宋都晨光国际,25155,120.38558959960938,30.29157829284668,146.22
江悦城,16673,120.4051284790039,30.34597206115723,33.076
东郡国际,25087,120.40086364746094,30.330888748168945,126.285
伊萨卡国际城,24521,120.39130401611328,30.295352935791016,139.512
保利湾天地,13327,120.37785339355469,30.27908515930176,241.82
碧桂园,21960,120.39924621582031,30.33559226989746,65.606
中兴景冉佳园,30264,120.39573669433594,30.31074333190918,112.305
城市果岭,25301,120.40216064453124,30.334392547607425,90.637
宝龙城市广场,19775,120.39108276367188,30.3176212310791,102.34
星星港湾J组团,12935,120.43121337890624,30.39299964904785,29.945
多蓝水岸,21708,120.39330291748048,30.30121421813965,180.405
梦琴湾,22577,120.39543914794922,30.303956985473636,174.125
宋都东郡之星,22580,120.39309692382812,30.33938026428223,81.755
江语海,33545,120.39881134033205,30.31022453308105,37.298
祥生钱塘新语,13589,120.38772583007812,30.35122108459473,85.485
朗诗国际街区,26042,120.39582824707031,30.306440353393555,28.278
金沙居,11927,120.39076232910156,30.312442779541016,123.785
星星港湾琴海居,15410,120.43589782714844,30.38844490051269,29.715
盈都揽悦,16518,120.38741302490234,30.341854095458984,74.015
杭州世茂江滨商业中心,13743,120.38727569580078,30.292896270751953,116.565
金沙学府,21498,120.39019012451172,30.308900833129886,94.795
中国铁建保利像素,19246,120.39144134521484,30.33877182006836,106.385
玫瑰湾,25519,120.3663101196289,30.27219581604004,99.745
和达自由港,16250,120.36359405517578,30.29878234863281,104.76
龙湖春江天越,24673,120.38990783691406,30.33407974243164,0.0
南大暖东,17567,120.39222717285156,30.340930938720703,66.341
蒲公英天地,16985,120.38029479980469,30.315223693847656,0.0
丰隆百翘香江,24881,120.3967742919922,30.3336124420166,71.795
保利东湾排屋,31677,120.37952423095705,30.27825164794922,145.485
星星港湾清风苑,13393,120.438720703125,30.38940048217773,36.336
润和橙家,15619,120.39295196533205,30.34909820556641,110.72
金隅空港公馆,12966,120.37770080566406,30.27652359008789,33.42
天元公寓,17659,120.37097930908205,30.307546615600586,139.71
保利湾天地二期,12517,120.37676239013672,30.276411056518555,23.9
绿地华家池印,50591,120.20602416992188,30.279052734375,132.595
世茂天宸,43919,120.2008819580078,30.281383514404297,33.255
濮家新村,35531,120.204833984375,30.289470672607425,184.37
闸弄口新村,34861,120.20028686523438,30.281694412231445,55.755
机神新村,36050,120.1988296508789,30.28855323791504,142.655
万家花园家和苑,38133,120.208984375,30.29264831542969,242.83
世茂天玑公寓,41583,120.20111846923828,30.28239440917969,121.42
华家池印公寓,37606,120.20439910888672,30.27970314025879,50.41
同方国际广场,19051,120.20610809326172,30.28108215332031,130.817
濮家东村,36104,120.20570373535156,30.28971672058105,161.04
紫薇公寓,39852,120.19392395019531,30.28514671325684,118.025
滨江世贸天宸,40750,120.2009506225586,30.28141975402832,86.69
京惠花园,36594,120.19672393798828,30.284128189086914,60.307
三华天运,37392,120.20866394042969,30.28913497924805,159.531
沁园雅舍生活馆,20099,120.20020294189452,30.29293441772461,112.791
机神公寓,34024,120.19719696044922,30.286834716796875,158.256
杭州湾公寓,13168,120.20668029785156,30.29228210449219,45.991
杰立公馆,20481,120.19928741455078,30.292560577392575,149.831
联合麦田,15812,120.20563507080078,30.29635429382324,141.021
天成嘉苑,40695,120.1929168701172,30.29062843322754,124.145
东方时代中心,14896,,,24.476
秋涛雅苑,34914,120.20355987548828,30.29358291625977,113.873
东茂苑,38051,120.19976043701172,30.287397384643555,152.001
天城国际,45013,120.19873809814452,30.29049491882324,60.399
万家花园万和苑,39244,120.21035766601562,30.293193817138672,191.4
万家花园欣和苑,39269,120.20964813232422,30.292333602905273,150.135
文晖铭园,33996,120.192626953125,30.28840637207031,53.215
闸弄口东村,35279,120.20372772216795,30.285385131835934,163.523
闸弄口铁路宿舍,33334,120.20040130615234,30.28359222412109,158.697
范家小区,44960,120.20338439941406,30.293903350830078,49.5
范家新苑,44960,120.20938873291016,30.29211235046387,158.043
范家天成公寓,24680,120.20890808105469,30.29406929016113,42.11
京惠紫枫阁,38658,120.19693756103516,30.28385162353516,155.925
交警宿舍,38973,120.20416259765624,30.29328536987305,96.959
省机施宿舍,69722,120.2043685913086,30.29384803771973,173.927
三华天运别墅,40638,120.20861053466795,30.28930473327637,48.431
天运花园,42671,120.20808410644531,30.28965759277344,138.689
天晖铭园,0,120.19279479980469,30.286027908325195,66.0
天仙新苑,44983,120.19159698486328,30.28777885437012,151.675
天成嘉苑北苑,44983,120.19357299804688,30.28968620300293,126.345
万科溪望,40530,120.0246353149414,30.277606964111328,124.588
创客空间公寓,25532,120.0037078857422,30.281837463378906,24.445
大华西溪风情澄品,42925,120.03831481933594,30.28848075866699,104.825
大华西溪风情公寓,45250,120.04259490966795,30.288631439208984,54.98
西溪润景公寓,22164,120.05111694335938,30.29853057861328,162.63
尚越海创绿谷公寓,16118,120.02747344970705,30.29519844055176,138.037
合景瑜翠园,33460,120.00013732910156,30.285383224487305,117.75
鹭栖湖,35891,119.9916000366211,30.26381492614746,52.9
万科溪望排屋,45027,120.04460144042969,30.27456474304199,31.9
运河赋,16919,120.14311981201172,30.40427017211914,47.786
佳源名城,18593,120.18161010742188,30.385356903076172,105.264
旭辉府,19693,120.14330291748048,30.389652252197266,91.58
旭辉时代城,19506,120.16944122314452,30.389894485473636,98.678
锦昌年华,20623,120.17562103271484,30.386823654174805,106.572
赞成杭家,18675,120.17931365966795,30.38433265686035,34.51
旭辉运河悦章,19030,120.141845703125,30.38755226135254,53.842
陆家桥,11478,,,31.514
江南院子,29474,120.17462921142578,30.39301872253418,28.718
中尚橄榄树花园北区,18673,120.17227935791016,30.390155792236328,45.49
中和北宸府,21048,120.17664337158205,30.38752746582031,56.344
中尚橄榄树花园,21248,120.1724090576172,30.389652252197266,168.002
杭钢紫元旭润和府,15888,120.21070098876952,30.409202575683594,53.145
君兰华庭,20005,120.169189453125,30.38424873352051,101.04
星海云庭,16036,120.17987823486328,30.392318725585934,63.252
上亿中央郡,23816,120.17112731933594,30.388776779174805,120.695
祥生群贤府,30204,120.15811920166016,30.38945579528809,43.53
路劲远洋江南院子,18125,,,28.436
荣安翡翠半岛,18409,120.15851593017578,30.387725830078125,65.074
紫欣华庭,17732,120.17388153076172,30.3876953125,142.623
经纬御贤府,15887,120.17127990722656,30.386362075805664,201.906
莲花公寓,19492,120.182373046875,30.39409637451172,71.174
迪凯运河印象,23433,120.1334457397461,30.3551082611084,102.726
赞成美树,22968,120.1255111694336,30.371641159057614,85.225
逸居城,21167,120.1229019165039,30.3889217376709,38.394
滨江旭辉万家之星,25158,120.1241683959961,30.36344337463379,73.631
德信海德公园,22274,120.12715911865234,30.36384391784668,71.645
上实海上海,29337,120.0863800048828,30.352182388305664,118.57
赞成赞城,20767,120.1107406616211,30.38467216491699,86.21
天阳棕榈湾,20566,120.0903778076172,30.36489295959473,143.795
北庭铭座,13120,120.1304931640625,30.38107872009277,50.15
正易上塘春苑公寓,13856,120.13024139404295,30.381031036376953,124.659
上亿彩虹郡,18674,120.1228256225586,30.38260078430176,134.686
天阳棕榈湾二期,16571,120.09138488769531,30.365856170654297,140.085
恒和依山郡别墅,18004,119.8499984741211,30.356529235839844,114.47
恒和依山郡,13855,119.84846496582031,30.358720779418945,78.1
琴湖碧园,9940,119.8248062133789,30.448345184326172,86.926
荷塘花苑,13323,119.88036346435548,30.385292053222656,67.643
径铭家园,13713,119.8392105102539,30.347789764404297,111.945
青城嘉园,12632,119.8740692138672,30.38603401184082,110.17
春花秋月公寓,12637,119.8775405883789,30.387826919555664,126.54
杭州径山红树林度假世界,53607,119.83747863769531,30.41488265991211,64.908
径乐家园,10294,119.87295532226562,30.383262634277344,31.497
庭院深深,20290,119.96739196777344,30.2507438659668,134.729
新西湖小镇,19651,119.92520141601562,30.243408203125,104.233
西西湖,23337,119.9419403076172,30.25926399230957,186.293
新明半岛,20854,119.96330261230469,30.24981117248535,163.58
中港罗兰小镇,20351,119.92726135253906,30.241497039794922,50.955
御蓝湾,22106,119.95719146728516,30.25786209106445,71.102
德信早安,20626,119.94012451171876,30.24732780456543,75.102
恒厚阳光城,21486,119.94181823730469,30.24690055847168,83.381
金岸提香,21192,119.94093322753906,30.24571990966797,30.805
保亿丽景山松果,22259,119.9789047241211,30.25739669799805,144.537
新湖果岭,26292,119.98321533203124,30.262378692626953,111.063
西溪永乐城,26019,120.0116958618164,30.280481338500977,50.025
同城印象,25167,119.95710754394531,30.27653503417969,166.532
福田假日之约别墅,19089,119.9540023803711,30.25781059265137,41.06
大华海派风范,32703,119.96013641357422,30.27453422546387,99.96
金岸提香排屋,19552,119.94065856933594,30.245492935180664,34.928
西城时代家园,23054,119.95375061035156,30.273967742919922,57.702
新湖菲林,26936,119.9813995361328,30.26003646850586,86.432
华门清水湾,20483,119.93973541259766,30.24571228027344,65.963
华门清水湾,20483,119.93973541259766,30.24571228027344,61.949
华门清水湾,19464,,,65.963
华门清水湾,19464,,,61.949
新南湖绿苑,18394,119.95109558105469,30.27025413513184,78.123
西溪山庄,22445,119.98323059082031,30.240732192993164,152.705
绿城桃源小镇,22491,119.97171783447266,30.23337173461914,26.575
绿城桃源小镇,22491,119.97171783447266,30.23337173461914,58.939
绿城桃源小镇,23380,119.97425079345705,30.2439079284668,26.575
绿城桃源小镇,23380,119.97425079345705,30.2439079284668,58.939
新城西溪逸境,39809,120.03012084960938,30.27895736694336,129.395
青枫墅园别墅,33777,119.95451354980469,30.27085876464844,121.624
新明半岛雨径轩,20393,119.96166229248048,30.252988815307614,132.998
山西园,20665,119.94689178466795,30.27472305297852,106.91
广瑞瑞成,25278,119.97349548339844,30.26198005676269,131.425
江南水乡别墅,36079,120.03379821777344,30.255847930908203,156.626
瑞城花园,27652,120.03484344482422,30.28862762451172,137.16
竹海雅苑别墅,14876,119.83959197998048,30.40730094909668,78.308
碧景园,23653,119.95249938964844,30.26278877258301,159.84
仓溢绿苑,24600,119.99925231933594,30.28790664672852,105.012
西花庭,25990,119.95789337158205,30.279964447021484,100.23
泊悦府,28383,119.9535675048828,30.2688045501709,39.562
小城之春,22698,119.9584732055664,30.27234077453613,140.139
锦绣时代,17732,119.9474639892578,30.287939071655273,136.448
融创金成江南府,22433,119.97584533691406,30.246723175048828,25.0
华源福临花苑,21491,119.94915771484376,30.278911590576172,88.855
恒合金座,21339,119.95938873291016,30.255807876586914,122.544
新湖香格里拉,44797,120.00264739990234,30.351377487182614,127.8
德信杭州ONE公寓,22919,120.13575744628906,30.35808753967285,30.912
万科良渚文化村未来城,30088,120.06160736083984,30.36837577819824,123.55
北大资源颐和江南,26158,120.04520416259766,30.37173080444336,33.27
亲亲家园一期,28238,120.0962142944336,30.34193420410156,168.361
和昌府,27640,120.06305694580078,30.37119483947754,170.462
协安蓝郡,32426,120.09065246582031,30.345706939697266,48.05
亲亲家园二期,27405,120.09463500976562,30.34347915649414,178.596
昆仑华府,24599,120.05087280273438,30.37234878540039,134.524
七贤郡,25859,120.00955963134766,30.35253524780273,86.881
九衡公寓,26681,120.05616760253906,30.373199462890625,52.01
南北盛德国际酒店式公寓,15731,120.1318817138672,30.3519287109375,89.046
越秀星汇尚城,27885,120.12865447998048,30.34644317626953,78.137
绿建北秀蓝湾,21081,120.05355834960938,30.374256134033203,108.6
越秀星汇悦城,29887,120.07506561279295,30.360307693481445,171.763
中粮梦栖祥云,28094,120.0474853515625,30.37568283081055,27.298
奥克斯缔逸城,28819,120.07746124267578,30.358257293701172,56.97
万科郡西澜山,32963,120.02676391601562,30.36572074890137,47.858
东田玉城,23246,120.05620574951172,30.37468147277832,140.518
万科良渚文化村郡西别墅,57947,120.02986907958984,30.36764907836914,55.525
荀庄,30077,120.02930450439452,30.387624740600586,172.79
奥克斯缔逸城公寓,26575,120.07706451416016,30.35645294189453,31.925
耀达金鼎华庭,19047,120.10702514648438,30.42032241821289,112.74
美都望城,23719,120.05601501464844,30.377445220947266,122.65
美丽洲别墅,28475,120.03273010253906,30.379169464111328,90.99
蔚蓝郡,28247,120.07018280029295,30.368120193481445,128.04
良渚文化村白鹭郡南,28639,120.0323257446289,30.364585876464844,102.23
香格里拉,27455,120.00259399414062,30.35137939453125,92.5
良渚文化村阳光天际,29264,120.0612564086914,30.382892608642575,26.525
良渚文化村阳光天际,29264,120.0612564086914,30.382892608642575,120.325
良渚文化村阳光天际,27593,120.04185485839844,30.37663078308105,26.525
良渚文化村阳光天际,27593,120.04185485839844,30.37663078308105,120.325
石榴派,28072,120.05664825439452,30.37204551696777,98.525
玉都枫景,27334,120.05647277832031,30.373029708862305,125.75
融信澜天,22590,120.0578842163086,30.36824989318848,131.485
竹径云山,36049,,,32.84
平瑞瑞和园,27167,120.05812072753906,30.3740348815918,178.148
万科锦云坊,24635,120.00797271728516,30.35984039306641,39.669
远大金地中心公寓,18821,120.09754180908205,30.348501205444336,31.617
三盛颐景御园,29379,120.03070831298828,30.38676452636719,123.445
佳源中心广场,9627,120.76042938232422,30.77399253845215,26.471
良渚书林苑,22011,120.05453491210938,30.38218116760254,37.155
理想湾,16703,120.27460479736328,30.442628860473636,175.85
夏宫,20233,120.27356719970705,30.43414688110352,28.07
华元欢乐城,18370,120.3075942993164,30.40145492553711,111.782
康城国际,23936,120.29493713378906,30.40719413757324,59.24
东海水景城,23771,120.3022232055664,30.40658950805664,64.13
朗诗枫荟,15435,120.26913452148438,30.43033599853516,7.42
金帝海珀,23342,120.287353515625,30.435556411743164,167.078
理想银泰城,23471,120.30987548828124,30.41117286682129,57.326
新城山语院,22694,120.28990173339844,30.431493759155273,56.74
万宝城,15187,120.29054260253906,30.43913078308105,151.075
中梁百悦城,19222,120.27727508544922,30.44317626953125,167.516
梅堰小区,17955,120.31756591796876,30.434389114379886,121.81
中铁逸都,19480,120.2984848022461,30.442707061767575,91.285
梧桐蓝山,23685,120.29353332519531,30.40232276916504,105.994
东晖龙悦湾,14647,120.24922943115234,30.440593719482425,53.365
顺达花苑,16857,120.2853012084961,30.439760208129886,73.751
嘉丰万悦城,17247,120.30590057373048,30.46302032470703,62.546
兴耀锦里,16381,,,28.958
赞成首府,21541,120.2895965576172,30.39580535888672,147.5
东厦东港花苑,18447,120.2782745361328,30.437530517578125,126.31
荷花塘小区,18711,120.29839324951172,30.435338973999023,135.79
御华府,21133,120.28347778320312,30.3908748626709,92.159
君临天下城,23331,120.31998443603516,30.41084861755371,116.18
启城,17621,120.23568725585938,30.462177276611328,51.23
鼎和金座,15952,120.32872772216795,30.44070053100586,30.0
莱茵知己,20734,120.28563690185548,30.43232345581055,178.659
金地艺境,22951,120.30471801757812,30.36673355102539,101.6
海澜半岛,17173,120.31676483154295,30.4046688079834,54.418
绿城蓝庭小日子,22238,120.28067016601562,30.43283843994141,109.38
晴彩巴厘,20780,120.32353973388672,30.416223526000977,60.665
绿城蓝庭,21742,120.27743530273438,30.43253517150879,119.612
美致生活广场公寓,17733,120.2509536743164,30.47124290466309,111.487
万泰城章,21815,120.28646850585938,30.397933959960934,164.785
香颂,21245,120.28429412841795,30.43440818786621,137.144
时间名座酒店式公寓,17124,120.28842163085938,30.41194152832031,59.291
崇邦余之城,24992,120.31021118164062,30.400331497192386,160.239
绿城莲园,22328,120.2952880859375,30.44213485717773,35.675
理想四维康城一品,29821,120.29923248291016,30.40803527832031,59.037
邱山小区,18866,120.3028793334961,30.431432723999023,160.806
玲珑香榭,16014,120.30524444580078,30.45828437805176,175.145
南北乐章,19522,119.97614288330078,30.378173828125,87.441
美都良景学府,19299,119.9784698486328,30.37707710266113,75.645
信达柳郡,20307,119.97810363769531,30.38028717041016,108.585
美好桂花溪园,19938,119.97552490234376,30.37311553955078,121.236
北湖绿洲花园,18445,119.9815673828125,30.38368988037109,125.105
屏惠家园,19326,119.98656463623048,30.381635665893555,61.685
窑山花园,15544,119.97415924072266,30.40547752380371,132.015
IOT未来城,11259,119.97662353515624,30.35715484619141,33.87
方惠家园,8182,,,9.95
凤城花苑,17038,119.98259735107422,30.392187118530273,109.995
瓶窑五彩商城,16519,119.981201171875,30.39891242980957,135.8
桃园小区,15202,119.98037719726562,30.39916610717773,41.667
凤溪花苑,18500,119.98576354980469,30.39615249633789,122.23
兴龙兴和苑,18473,119.9824676513672,30.396282196044922,136.27
祥盛家园,14645,,,8.486
东兴路小区,16424,119.98037719726562,30.397071838378906,121.544
羊山公寓,17709,119.97830963134766,30.38776588439941,63.0
华兴公寓,19002,119.98251342773438,30.39666175842285,133.478
精工新村,20274,119.9564208984375,30.26059341430664,142.034
黎鹰酒店公寓,11230,119.76990509033205,30.458309173583984,85.642
瓶窑杨梅坞,16054,119.97320556640624,30.40640068054199,74.305
瓶窑桥北,16372,119.97509002685548,30.40112113952637,140.055
桥南新村,17904,119.97872924804688,30.400917053222656,126.426
瑞达城市花苑,11523,119.98324584960938,30.393224716186523,149.7
新兴路小区,13317,119.97872924804688,30.400941848754886,131.0
隐龙山庄,16484,119.9807357788086,30.393558502197266,68.335
复地连城国际,22012,120.2945327758789,30.341398239135746,142.282
东田怡丰城公寓,18277,120.30352020263672,30.372255325317386,92.18
佳兆业君汇上品,24943,120.29926300048828,30.338001251220703,107.909
东冠逸家,18298,120.2950439453125,30.347942352294922,135.857
复地又一城,20880,120.29913330078124,30.34075164794922,79.187
仁良花苑,12990,120.0872802734375,30.44453048706055,54.526
清合嘉园,16173,120.0939483642578,30.4490966796875,117.655
美地兰庭,15405,120.09431457519531,30.43727684020996,109.333
耀达金鼎阳光,17601,120.0943603515625,30.44978141784668,85.939
凯文和平雅苑,16577,120.0999984741211,30.44808959960937,127.219
春色满园,13423,120.12046813964844,30.42731666564941,30.636
金阳湾,15479,120.09744262695312,30.45049285888672,128.1
仁和金鼎公寓,14836,120.09678649902344,30.448505401611328,115.616
仁惠家园,15291,120.09720611572266,30.44782447814941,95.329
耀达仁和印象,10893,120.10155487060548,30.451757431030273,113.31
塘栖一小区,14714,120.19775390625,30.48688888549805,59.902
九龙仓君廷,17292,120.23275756835938,30.46123123168945,64.943
香醍溪岸,19443,120.2401123046875,30.452152252197266,78.495
金石华城,18968,120.20458221435548,30.48051452636719,151.555
贝利栖溪望府,17785,120.20772552490234,30.48317146301269,163.595
贝利栖溪公馆,19145,120.19691467285156,30.47507667541504,58.626
春风江南府,17756,120.20368194580078,30.47944259643555,129.745
塘栖嘉园,13132,120.19889068603516,30.486825942993164,123.344
塘栖西小河,13989,120.1956787109375,30.48374938964844,27.99
随塘,27448,120.19051361083984,30.473478317260746,9.012
东小河公寓,14055,120.19694519042969,30.48465156555176,127.635
水乡华庭,16573,120.1964874267578,30.479900360107425,163.605
锦绣名邸,11636,120.20372772216795,30.47364616394043,48.7
野风启明苑,17873,,,9.252
康庭和苑,14911,120.23764038085938,30.457990646362305,59.785
景丽华庭,15921,120.24126434326172,30.46269416809082,105.675
香雪园,0,120.20500183105469,30.48069953918457,35.75
栖水珑庭,18148,120.20333862304688,30.480091094970703,202.624
宝丽金庭,16881,120.20892333984376,30.48101806640625,58.722
塘栖乐苑小区,14242,120.1952667236328,30.4793643951416,65.556
星海云庭花园,16441,120.18202209472656,30.39173889160156,36.695
塘栖佳丽苑,14977,,,25.0
水榭花都,17419,120.19635009765624,30.47644805908203,153.485
新苑小区,14464,,,33.754
阳光一百嘉园,14114,120.1917724609375,30.48016929626465,33.944
天府家园,15837,120.19587707519531,30.48150062561035,121.115
春满小筑,16576,,,25.0
广济公寓,13641,120.19075775146484,30.482074737548828,31.774
水乡人家,14900,120.19512176513672,30.48562812805176,7.388
东石塘小区,12632,,,32.934
塘栖西苑,12495,120.19181823730469,30.476531982421875,42.863
李家桥小区,16621,120.22029876708984,30.48391151428223,64.137
水乡名苑,27076,120.21045684814452,30.3620662689209,67.239
众孚水榭花都,16967,120.1966781616211,30.476905822753906,37.87
西溪海小海,23210,119.98851013183594,30.2502555847168,59.0
杭州富力中心,28517,120.00022888183594,30.287975311279297,7.27
欧美金融城(EFC),30962,120.0095443725586,30.28721046447754,36.59
英特学府,22451,119.96150970458984,30.25247383117676,39.59
乐山红叶,22657,119.98731231689452,30.240619659423828,58.729
青枫墅园,26286,119.99146270751952,30.2653923034668,35.139
大华西溪风情,49351,120.0489501953125,30.282413482666016,56.365
新时代城市家园,20092,119.98916625976562,30.23210906982422,55.675
北大资源未名府,36714,120.04759979248048,30.300275802612305,66.864
合景映月台,39172,120.02066040039062,30.27824211120605,55.22
复地上城,23553,119.97337341308594,30.260215759277344,154.655
飞鸟客公寓,29754,120.0502471923828,30.29317855834961,66.81
万通时尚公馆,30013,120.00566864013672,30.2924861907959,30.455
富力西溪悦居,40306,120.03573608398438,30.28950500488281,61.43
西溪蓝海城,28217,120.01465606689452,30.279396057128906,33.46
天贸广场酒店式公寓,23385,120.03581237792969,30.28978538513184,27.64
国开东方凤凰台,25438,119.95643615722656,30.25994873046875,25.0
西溪美岸公寓,29901,120.04890441894531,30.29597091674805,64.245
富力西溪悦居溪区,40835,120.02652740478516,30.28257751464844,63.19
合景叠彩园,40405,120.03507995605469,30.280141830444336,66.401
合景天峻,34597,120.00325012207031,30.292091369628906,63.75
金地西溪风华,38265,120.03763580322266,30.28015327453613,37.392
西溪泊岸,20515,120.04563903808594,30.29187393188477,58.637
富力十号,40036,120.02589416503906,30.284433364868164,36.563
佳兆业西溪璞园,27935,120.0411148071289,30.241365432739254,63.223
奥克斯杭州未来中心,32354,120.00408172607422,30.287111282348636,58.885
保亿围庐,25651,119.9808349609375,30.257583618164066,35.243
富力新线公园,36622,120.03363800048828,30.2984561920166,62.295
万科星空,41915,120.03264617919922,30.29595947265625,36.12
五迪中心公寓,26466,120.01683044433594,30.29206085205078,39.502
溪上玫瑰园,47009,120.02770233154295,30.25704002380371,64.95
杭州未来广场公寓,23195,120.02244567871094,30.290441513061523,58.617
景瑞原墅,33220,119.9954605102539,30.27128791809082,35.64
阳光城未来悦,25398,119.99547576904295,30.274370193481445,33.857
中锐招商星未来,21737,119.93310546875,30.242691040039066,25.0
华夏四季,30127,120.04027557373048,30.30195426940918,9.18
美林公馆,33306,120.0508270263672,30.28587532043457,29.72
C.C.TOWN西溪堂公寓,23370,119.99797821044922,30.28331756591797,55.379
城西宝龙广场,21647,119.99466705322266,30.286073684692386,45.806
盛奥铭座,19301,120.04939270019531,30.29848289489746,49.135
闲湖城,23170,119.99735260009766,30.23415565490723,61.804
竹海水韵,21909,119.98650360107422,30.24421310424805,52.285
雅居乐国际花园,20589,119.98670959472656,30.23707771301269,63.326
爵士风情,20289,119.99724578857422,30.24126625061035,59.668
众安学君里,19415,119.97069549560548,30.252531051635746,56.406
翡翠城,32049,120.0279541015625,30.24884605407715,27.945
盛世嘉园,22469,120.03314971923828,30.23974418640137,38.006
八方城,27799,120.05292510986328,30.294246673583984,52.035
竹海水韵春风里,22540,119.98299407958984,30.2428035736084,45.38
岸上蓝山,21411,120.01437377929688,30.24111557006836,44.703
桃花源,50123,119.9518814086914,30.25160026550293,57.417
闲林山水紫薇苑,23090,120.02043151855469,30.2414493560791,136.589
蒙卡岸,26743,120.01639556884766,30.24721527099609,87.88
华盛星洲翠谷,19877,119.9946060180664,30.22591781616211,65.722
滨江西溪之星,41920,120.0480499267578,30.27178382873535,111.097
白云深处别墅,28616,119.98776245117188,30.232929229736328,55.617
温莎郡,28258,119.97533416748048,30.26178550720215,179.706
溪上玫瑰园别墅,54758,120.0382308959961,30.23930549621582,150.186
融创金成西溪海,24184,119.988037109375,30.250186920166016,27.78
东海闲湖城印象加州,24412,120.0001983642578,30.237836837768555,53.52
爱丁郡,28359,120.04019927978516,30.258262634277344,238.171
西溪华东园,29102,120.02377319335938,30.256092071533203,112.481
闲林山水,21077,120.02133178710938,30.24085235595703,179.625
竹海水韵流霞苑,22387,119.98299407958984,30.24279594421387,52.508
西溪玫瑰,50005,120.04727172851562,30.2548885345459,103.371
人和家园,20890,120.0488739013672,30.24584197998047,53.59
江南新港,19460,119.99335479736328,30.23809814453125,67.667
新湖果岭别墅,21121,119.98351287841795,30.2633056640625,62.126
林溪闲庭,22507,119.99053192138672,30.234344482421875,57.061
泰禾杭州院子别墅,58136,120.03943634033205,30.277833938598636,128.996
白马山庄,21937,120.02391815185548,30.22409820556641,52.405
泊林漫谷,20414,120.0117416381836,30.21570205688477,29.375
玉榕庄别墅,18644,119.97687530517578,30.24815368652344,88.525
翡翠城西泠苑,31150,120.02323150634766,30.24800109863281,164.008
新城峯璟,40148,120.03746032714844,30.278249740600586,56.89
溪悦宸府,28048,120.02875518798828,30.253158569335934,228.03
新明半岛排屋,22006,119.9619140625,30.25348854064941,65.87
百家乐西园,33241,120.0426254272461,30.27424430847168,51.455
白马山庄别墅,23921,120.02393341064452,30.224611282348636,59.484
擎天半岛,21089,120.27790832519531,30.40527153015137,148.28
惠都家园,19271,120.2753677368164,30.403247833251953,56.662
广厦天都城,18322,120.25486755371094,30.394737243652344,161.711
桂花城(星桥),21532,120.27179718017578,30.40351676940918,94.446
桂花金座,20184,120.26162719726562,30.397199630737305,111.313
天都城天河苑,21121,120.25313568115234,30.394153594970703,173.325
天都城苏荷苑,17650,120.25633239746094,30.38372230529785,31.144
星雅嘉园,18707,120.2596664428711,30.39590263366699,125.134
天都城天星苑,21753,120.25652313232422,30.388246536254886,133.204
华艺星座,21277,120.25906372070312,30.40002250671387,156.815
美耀湾,20831,120.260986328125,30.40413475036621,94.28
天都城天湖苑,20366,120.25108337402344,30.39394378662109,149.257
五月花城,18775,120.27619934082031,30.407575607299805,74.062
华庭嘉苑,20852,120.26863861083984,30.40422821044922,105.777
朗诗花漫里,27606,120.29102325439452,30.35097312927246,100.545
广厦天都城天澜,18875,120.25189971923828,30.391845703125,103.866
紫桂公寓,22367,120.26399993896484,30.40365791320801,91.035
星运丽园,21304,120.26885223388672,30.400653839111328,105.105
广厦天都城爱尚公寓,24826,120.25261688232422,30.38752555847168,143.618
紫韵公寓,21068,120.25615692138672,30.386165618896484,120.955
广厦天都城爵士花园,20063,120.251708984375,30.38401222229004,193.763
天都城天泉苑,16479,120.25255584716795,30.39153289794922,96.2
天都城天月苑,18330,120.25598907470705,30.39357566833496,159.764
天都城天风苑,18801,120.25304412841795,30.394248962402344,142.701
悦泽公寓,18320,120.2618408203125,30.395320892333984,57.75
天都城枫桥庭,0,,,0.0
品立方,15818,120.29841613769531,30.35260391235352,111.879
汤家锦绣公寓,17725,120.25544738769531,30.40658760070801,100.861
天都城天水苑,18665,120.24983215332031,30.397069931030273,140.6
爱丽山庄,28592,120.24832153320312,30.394153594970703,119.025
太平家园,20147,120.27215576171876,30.405792236328125,128.175
华翠嘉苑,20739,120.26000213623048,30.400644302368164,87.919
逸景花苑,23116,120.29603576660156,30.35201072692871,113.595
擎天半岛排屋,29491,120.27774047851562,30.40718650817871,128.086
东城丽景,23875,120.29581451416016,30.36029815673828,33.895
黄鹤山居,17556,120.26593780517578,30.40559005737305,94.284
王家堰小区,18317,120.25005340576172,30.415447235107425,104.65
爱丽山庄别墅,34417,120.2471694946289,30.394853591918945,143.048
星乐小区,13959,120.26313018798828,30.395343780517575,136.08
华庭嘉式苑,20829,120.26239776611328,30.40338706970215,94.607
高润云杉郡公寓,26042,120.1747055053711,30.17967414855957,50.05
彩虹城,41145,120.16223907470705,30.195669174194336,284.311
江滨澜廷酒店式公寓,32692,120.21724700927734,30.2211856842041,47.355
星耀中心,36405,120.22881317138672,30.207767486572266,3.662
临江花园,31096,120.15394592285156,30.19121551513672,200.375
银杏汇,54449,120.1549301147461,30.19562911987305,160.738
水晶城,55013,120.17321014404295,30.19701766967773,216.565
钱塘帝景,49921,120.17698669433594,30.19831085205078,175.015
仁苑,37577,120.18455505371094,30.198528289794922,25.525
中兴和园,28051,120.18824005126952,30.16365051269531,93.081
盛元慧谷,40085,120.17130279541016,30.19676399230957,202.66
太阳国际,41036,120.16561126708984,30.19675636291504,239.645
钱江水晶澜轩,58476,120.17254638671876,30.199005126953125,105.51
兴耀星澜之城,37089,120.22997283935548,30.219623565673828,26.04
六合天寓,38211,120.15926361083984,30.192371368408203,52.325
彩虹豪庭,52481,120.16374969482422,30.197322845458984,110.125
国信嘉园,48479,120.1688003540039,30.19573211669922,263.715
滨江江滨花园,41362,120.16700744628906,30.19356346130371,36.48
碧桂园深蓝国际中心,31323,,,27.5
通策广场,37413,120.17029571533205,30.19166374206543,110.84
碧水豪园,36911,120.1550521850586,30.18877220153809,126.905
银色港湾,35633,120.16497039794922,30.19245338439941,307.57
绿城九龙仓柳岸晓风,60325,120.1866226196289,30.20420837402344,48.338
龙禧大酒店公寓,29455,120.16946411132812,30.19024085998535,128.425
之江公寓,34808,120.1563720703125,30.1941032409668,202.035
海威新界,34461,,,34.402
联庄江涛阁,33670,120.15752410888672,30.189584732055664,151.11
钱塘景苑,33480,120.16497802734376,30.19160079956055,229.262
之江花园,33283,120.15758514404295,30.194904327392575,188.91
碧水豪园排屋,40888,120.1554718017578,30.18972396850586,108.192
太阳国际(50年),32902,120.16635131835938,30.196861267089844,158.28
联庄公寓,47319,120.1611557006836,30.19006729125977,128.125
之江公寓景江苑,34895,120.1584014892578,30.193159103393555,236.68
星耀城,33807,120.22067260742188,30.21996307373047,111.07
中南白马湖壹号,28335,120.19053649902344,30.15301513671875,102.815
南岸晶都,31889,120.20206451416016,30.18443489074707,101.585
铂金名筑,35669,120.2016830444336,30.183490753173828,136.324
半岛国际,45733,120.20053100585938,30.20715522766113,136.38
风雅钱塘,40852,120.21502685546876,30.207454681396484,302.841
水印城,38913,120.19923400878906,30.209272384643555,193.545
杭州印公寓,31432,120.21170806884766,30.21756935119629,123.893
环亚航银座,15546,,,0.0
风景蝶院,32454,120.20720672607422,30.176448822021484,134.88
白金海岸,37975,120.19488525390624,30.20867347717285,141.245
君尚金座酒店式公寓,31550,120.20643615722656,30.212127685546875,119.082
中兴花园,36914,120.21065521240234,30.211069107055664,181.38
春江时代,37801,120.19862365722656,30.20865821838379,203.32
海威国际,42962,120.2025146484375,30.21198081970215,156.7
锦绣江南,37019,120.19174194335938,30.20852088928223,176.405
德信时代之心公寓,34322,120.20658111572266,30.18780517578125,32.863
倾城之恋,43061,120.2145004272461,30.20660400390625,119.74
汉峰,24724,120.2109375,30.21464920043945,117.749
江南星座公寓,16148,120.2184066772461,30.21200180053711,26.24
恒大城市之光,29509,120.18927764892578,30.177528381347656,32.882
盛庐,38443,120.1826171875,30.1984977722168,24.8
江锦国际,20035,120.20582580566406,30.213462829589844,153.14
朗庭公馆,16302,120.20500946044922,30.17854118347168,145.305
江南铭庭,31949,120.2084503173828,30.17812538146973,113.03
滨兴家园,29445,120.19956970214844,30.198383331298828,24.34
长河商厦,17498,120.201416015625,30.177661895751953,97.642
东和时代,25133,120.21290588378906,30.21588134765625,123.83
湖漫雅筑,36682,120.2047882080078,30.17670440673828,105.782
长江小区,29275,120.19273376464844,30.183238983154297,138.705
长兴苑,26255,120.1982879638672,30.18414688110352,157.369
冠山小区,23046,120.20428466796876,30.16386795043945,65.41
钱龙名汇公馆,21254,120.20899200439452,30.21362113952637,122.135
白马湖小区鸿雁苑,27232,120.20906066894531,30.171283721923828,49.795
长江西苑,27276,120.18962860107422,30.18486976623535,143.44
钱江MOHO,22359,120.20938110351562,30.214702606201172,154.11
白马湖小区凤凰苑,25367,120.21533203125,30.173038482666016,135.015
印月尚庭,32213,,,31.616
长河中学教工宿舍,25568,120.19767761230469,30.18447303771973,25.41
凯瑞金座公寓,28764,120.20854949951172,30.214242935180664,68.57
钱江湾花园,36155,120.13948822021484,30.18463134765625,234.535
璞悦湾,48397,120.14360809326172,30.17668342590332,144.25
积家,26339,120.15270233154295,30.179765701293945,47.755
江南文苑,35041,120.15020751953124,30.176055908203125,241.425
贺田尚城,35168,120.14260864257812,30.18749618530273,154.435
曼城,32739,120.16116333007812,30.16550064086914,60.43
钱塘山水,41028,120.1383285522461,30.18122673034668,197.92
龙禧硅谷酒店广场,14622,120.15681457519531,30.1864013671875,227.18
天鸿君邑,35488,120.14727020263672,30.18141365051269,203.1
东和云第,33263,120.16539764404295,30.171001434326172,137.85
观邸国际公寓,34472,120.1400909423828,30.187297821044922,194.315
超级星期天公寓,28214,120.14176177978516,30.185365676879886,173.065
钱塘玫瑰湾,36741,120.14836883544922,30.174793243408203,165.8
浙新小区,28708,120.14918518066406,30.177913665771484,174.275
逸天广场公寓,33669,120.1438217163086,30.181007385253906,271.302
风尚蓝湾,18800,120.14127349853516,30.181798934936523,196.91
世茂之西湖,48018,120.15406036376952,30.19414710998535,177.57
银爵世纪公寓,33825,120.1538314819336,30.17609596252441,166.63
现代印象广场,16364,120.17813873291016,30.19035339355469,148.011
星汇荣邸,34231,120.155517578125,30.172929763793945,34.625
潮人汇,15793,120.1696548461914,30.19017791748047,175.47
长岛之春,28790,120.1683349609375,30.17685890197754,185.474
钱塘大观,28670,120.13880157470705,30.188457489013672,34.396
滨文苑,25038,120.17245483398438,30.1778564453125,176.567
积家5号,27281,120.15133666992188,30.180686950683594,102.476
巧园,34196,120.15460205078124,30.174509048461914,150.81
杭州滨江宝龙城市广场公寓,25225,120.17432403564452,30.19404411315918,34.958
火炬小区,22060,120.17926025390624,30.17038917541504,58.254
钱塘福苑,21601,,,27.5
江畔云庐,25364,120.16217041015624,30.18313026428223,39.38
江南国美家园,37200,120.18508911132812,30.20406150817871,57.773
大同公寓,20799,120.15389251708984,30.162111282348636,87.257
之江花园别墅,49613,120.15861511230469,30.19619178771973,36.459
浮力森林苑,26348,120.158203125,30.166105270385746,188.365
国信嘉园别墅,71828,120.1686553955078,30.19454002380371,271.712
龙禧公寓,15766,120.1694793701172,30.19041633605957,139.08
钱塘帝景别墅,91774,120.17593383789062,30.19780158996582,122.564
志成广场御江月,30301,120.15153503417969,30.181884765625,30.72
东冠公寓,26667,120.16742706298828,30.17165756225586,140.02
天鸿君邑公寓,29742,120.14720153808594,30.181352615356445,22.5
东方郡,47973,120.22032928466795,30.20372009277344,138.275
寰宇天下,44830,120.222412109375,30.22325897216797,328.66
明月江南,52965,120.23291778564452,30.21333122253418,282.3
绿地旭辉城,49929,120.23519134521484,30.23080635070801,179.548
春江彼岸,50225,120.23967742919922,30.226703643798828,225.344
康康谷,34168,120.21397399902344,30.200159072875977,97.175
星光国际公馆,22586,120.21546173095705,30.213712692260746,58.593
恒鼎博邑郡酒店式公寓,27256,120.18334197998048,30.19719123840332,56.406
中央花城,49227,120.22247314453124,30.20757293701172,269.99
龙湖春江郦城,53517,120.210205078125,30.20592498779297,145.62
官河锦庭,43037,120.2296371459961,30.18890380859375,168.418
世茂智慧之门,31661,120.23658752441406,30.22103881835937,125.07
钱塘之星,32983,120.2305679321289,30.219884872436523,60.209
玲珑府,35538,120.23204803466795,30.18827819824219,178.129
东方花城,36367,120.23844146728516,30.191654205322266,103.032
兴耀鑫都汇公寓,28578,120.22541809082031,30.188159942626953,130.343
金铂湾公寓,29935,120.2159652709961,30.22026252746582,138.58
温兴风情苑,30496,120.2360610961914,30.196592330932614,178.11
钱塘春晓,38128,120.22174072265624,30.211750030517575,261.165
连园,36204,120.23029327392578,30.19466781616211,104.182
江南豪园,39022,120.21829986572266,30.21054077148437,56.419
温馨人家,39341,120.22145080566406,30.20809555053711,248.367
迎春小区,32518,120.2275619506836,30.20318984985352,200.844
视界之窗,23752,120.22409057617188,30.19540405273437,207.066
东方郡东区,46851,120.22058868408205,30.20467567443848,50.95
新州花苑,40988,120.23377227783205,30.210777282714844,291.457
春波小区,29389,120.22135925292969,30.19655036926269,158.036
歌山品悦府,30586,120.23101806640624,30.197099685668945,200.07
铂金时代,40304,120.22377014160156,30.20104789733887,205.384
铁岭花园,25521,120.2271728515625,30.19668388366699,151.367
水榭春天,47015,120.23304748535156,30.232051849365234,147.124
同方燕语林森,30982,120.2296905517578,30.19321060180664,154.626
滨康小区,28432,120.21553802490234,30.18492889404297,205.757
缤纷小区,34233,120.23113250732422,30.222230911254886,197.086
缤纷北苑,29963,120.23085021972656,30.22531700134277,199.174
六眼井,31698,120.23198699951172,30.19461250305176,51.83
望江南,50082,120.2182159423828,30.20861625671387,232.991
湘云雅苑,27517,120.23737335205078,30.202547073364254,114.56
水晶湾,35529,120.23204040527344,30.192588806152344,54.206
迎春北苑,31047,120.2262954711914,30.20379447937012,155.667
艮园,36793,120.1919403076172,30.275310516357425,147.636
树园,36670,120.1893310546875,30.275177001953125,172.324
永康苑,36588,120.18834686279295,30.278520584106445,161.026
东园,35327,120.19058990478516,30.27200126647949,143.046
新华坊,37090,120.18394470214844,30.272499084472656,142.354
锦园,35216,120.18851470947266,30.27211761474609,202.461
广宇河滨公寓,36769,120.18639373779295,30.27287101745605,138.206
利兹城市公寓,39347,120.1858139038086,30.27858924865723,164.746
御跸苑,35831,120.18376159667969,30.278133392333984,28.303
东园大楼,33140,120.18856811523438,30.270565032958984,147.015
环东公寓,38119,120.19375610351562,30.27410125732422,147.805
东园高层公寓,38446,120.18992614746094,30.27055549621582,143.499
云天财富中心,20836,120.18839263916016,30.279958724975586,133.48
天赐苑,37540,120.18971252441406,30.27726745605469,124.375
大营盘,38027,120.18309020996094,30.2763729095459,260.467
天园阁,33920,120.19326782226562,30.274471282958984,150.138
工人新村,34428,120.19305419921876,30.27330207824707,160.61
宝善公寓,43851,120.18684387207031,30.2777156829834,175.929
东河春晓,39985,120.1861343383789,30.27668380737305,143.245
健康公寓,39762,120.18431091308594,30.27402687072754,107.364
幸福人家,35319,120.1854476928711,30.271411895751953,108.699
云裳公寓,37209,120.18787384033205,30.276966094970703,154.394
温馨家园,38852,120.18779754638672,30.27936935424805,57.408
羊千弄,45359,120.1885986328125,30.27842712402344,161.83
木庵小区,36900,120.18324279785156,30.27892875671387,146.65
裕达大厦,28511,120.19245147705078,30.276765823364254,126.93
体育场路153号,47792,120.1818618774414,30.274837493896484,175.596
嘉联华铭座公寓,35035,120.186767578125,30.278179168701172,122.62
晶晶大厦,32209,120.19326782226562,30.27416038513184,150.235
莫衙营,41250,120.18982696533205,30.27808380126953,150.377
浙大御跸社区,42931,120.18265533447266,30.277332305908203,137.815
诚信大厦,42940,120.18781280517578,30.26980018615723,153.84
环城东路小区208-369号,42079,120.19374084472656,30.266082763671875,172.015
嘉业海华公寓,38542,120.18604278564452,30.27879905700684,164.262
体育场路53号,44956,120.18988800048828,30.27582931518555,100.859
体育场路43号,44958,120.1913604736328,30.2758846282959,106.955
体育场路57号,40425,120.18240356445312,30.27482032775879,137.647
体育场路87号,37483,120.1862335205078,30.27552604675293,132.584
体育场路55号,46776,120.18949127197266,30.275882720947266,68.898
助圣庙前,41757,120.18335723876952,30.27057266235352,133.703
青春坊,43639,120.18131256103516,30.264406204223636,158.036
十五家园,38551,120.18059539794922,30.27228164672852,54.175
凤起都市花园,41766,120.18399047851562,30.26938247680664,149.91
林司后小区,40934,120.18170928955078,30.26756477355957,145.78
水陆寺巷,39971,120.18435668945312,30.26473999023437,180.694
柳营花园,51993,120.18115234375,30.266401290893555,132.835
吴牙新村,46282,120.1823272705078,30.26421165466309,158.651
新华路小区,38420,120.1824722290039,30.26770210266113,137.542
东清巷小区,44165,120.1852035522461,30.266923904418945,141.693
横燕子弄,40770,120.18373107910156,30.26661491394043,165.2
丽景西苑,59789,120.1857681274414,30.26775932312012,144.947
宋浇造巷,74438,120.1771240234375,30.26167297363281,185.48
长宁街小区,41473,120.17903900146484,30.267038345336914,135.209
长庆街小区,44476,120.17880249023438,30.26614189147949,144.074
王马巷小区,38970,120.18404388427734,30.265777587890625,155.575
遥祥寺巷,38578,120.18475341796876,30.26759529113769,126.801
海狮沟,37742,120.1849136352539,30.26658058166504,147.099
柳营巷,42942,120.1805191040039,30.266498565673828,173.534
宝善桥小区,73128,120.18462371826172,30.276033401489254,156.804
昌化路小区,56900,120.16586303710938,30.27425575256348,122.45
东清大厦,38426,120.1837158203125,30.26400756835937,138.959
富润里,42677,120.18421173095705,30.266929626464844,133.173
凤起都市商务大厦,45069,120.18495178222656,30.26995849609375,148.435
金庆公寓,40329,120.18567657470705,30.265106201171875,139.06
建德村,38395,120.1932144165039,30.26457214355469,236.965
嘉德广场公寓,56279,120.17963409423828,30.264102935791016,106.816
柳营社区,51716,120.18074798583984,30.268156051635746,243.362
雷迪森大酒店公寓,59063,120.16861724853516,30.275470733642575,123.628
莫干山小区,25564,120.09851837158205,30.3531551361084,103.86
青云街小区,50393,120.1784210205078,30.26931953430176,132.858
庆春路小区,35098,120.17274475097656,30.2642822265625,152.243
池塘巷,51716,120.18048095703124,30.26779556274414,159.246
双眼井巷,39976,120.18348693847656,30.268346786499023,32.694
石匠弄,44232,120.1828384399414,30.26838111877441,104.235
三圣堂,35834,120.18341827392578,30.264507293701172,98.491
天安假日公寓,49727,120.18560028076172,30.269439697265625,148.737
体委宿舍,57973,120.17872619628906,30.27732276916504,130.145
王马社区,42681,120.1850128173828,30.26749610900879,194.001
吴牙巷小区,45940,120.18047332763672,30.26421546936035,177.054
万盛花苑,40257,120.1852035522461,30.27050399780273,116.879
朝晖七区,36766,120.1658935546875,30.29254531860352,259.195
朝晖六区,35896,120.17425537109376,30.29416656494141,178.21
朝晖九区,35498,120.16519165039062,30.295202255249023,59.877
现代名苑,40375,120.18090057373048,30.29515647888184,166.712
朝晖四区,36753,120.17769622802734,30.291400909423828,250.588
朝晖二区,37097,120.17610931396484,30.289390563964844,115.065
武林府,55938,120.1748504638672,30.28493690490723,122.744
朝晖一区,36078,120.173095703125,30.28852081298828,289.513
现代雅苑,40680,120.17899322509766,30.29793357849121,118.74
朝晖五区,36737,120.16747283935548,30.29257392883301,160.979
朝晖三区,36444,120.16938018798828,30.29058837890625,164.784
现代景苑,41045,120.1758041381836,30.30131530761719,198.062
庆晖公寓,33901,120.16356658935548,30.29238510131836,184.309
野风现代中心,20864,120.23670959472656,30.19468116760254,31.676
现代家园,38025,120.1852798461914,30.29006767272949,114.882
朝晖新城,33052,120.17272186279295,30.2933349609375,129.789
朝晖八区,32840,120.16546630859376,30.29645729064941,139.897
潮王人家,31734,120.1668701171875,30.29558563232422,144.346
通盛嘉苑,37784,120.17389678955078,30.286285400390625,113.217
西湖新城,34491,120.17295837402344,30.28413200378418,127.619
朝晖黎明园,36690,120.16979217529295,30.28854942321777,144.263
东方豪园,30584,120.16986083984376,30.294906616210934,60.812
潮王公寓,38282,120.1759796142578,30.29662704467773,107.77
汇融公寓,36420,120.18688201904295,30.28964424133301,107.495
打铁关路小区,31739,120.18399810791016,30.28720283508301,114.786
朝晖苑,34091,120.16773223876952,30.290218353271484,100.32
天盛居,35846,120.16303253173828,30.29612159729004,109.062
文晖里新村,35407,120.17987823486328,30.288530349731445,103.406
现代之窗,28046,120.18018341064452,30.297067642211914,63.227
朝晖小区,38267,120.1693115234375,30.29196357727051,124.18
朝晖路90号,57168,120.18511199951172,30.28473281860352,114.21
稻香园小区,36622,120.1614227294922,30.29198837280273,104.84
东晖路小区,35548,120.17527770996094,30.29618263244629,134.072
杭氧社区,20390,120.1847915649414,30.305286407470703,200.449
河罕上,27862,120.18742370605469,30.283706665039066,79.67
杭州人民大厦,62050,120.16094207763672,30.29189109802246,109.106
秋水巷,36295,120.17507934570312,30.28293228149414,138.605
润和皇庭花园,35453,120.1822509765625,30.28890419006348,234.235
新河公寓,36059,120.15664672851562,30.291095733642575,184.659
浙工大教师宿舍,33301,120.17552185058594,30.29841613769531,133.158
中江花园,37969,120.19188690185548,30.2779598236084,162.117
潮鸣苑,37822,120.1889877319336,30.26618385314941,200.19
双牛大厦,17176,120.18670654296876,30.269575119018555,147.983
凤栖花园,42918,120.1920928955078,30.268762588500977,162.495
石板巷,34565,120.19058990478516,30.271581649780273,62.71
东河锦园,49607,120.18679809570312,30.26534080505371,61.813
凤起苑,39130,120.19005584716795,30.269567489624023,63.811
云龙公寓,38988,120.19149780273438,30.26480484008789,63.009
米兰公寓,43269,120.1930923461914,30.26504325866699,35.621
玄坛公寓,50857,120.17610931396484,30.274494171142575,62.517
珠碧苑,36649,120.190185546875,30.26510810852051,51.605
红枫苑,40668,120.18781280517578,30.266860961914066,52.715
金鹿雅苑,37024,120.1851577758789,30.27219200134277,58.122
东园巷小区,37741,120.18716430664062,30.27320671081543,34.13
泰和苑,38279,120.19335174560548,30.267417907714844,59.168
云龙十一景,42039,120.1881332397461,30.26559066772461,57.172
回龙庙前,41540,120.19004821777344,30.266788482666016,54.31
丽景苑,36285,120.1857681274414,30.26775932312012,58.67
体育场路2号,39471,120.1926498413086,30.276538848876953,67.0
兴和公寓,37107,120.19033813476562,30.267763137817386,61.796
祖庙巷,56777,120.17721557617188,30.26275062561035,69.589
建国公寓,40175,120.18841552734376,30.268896102905273,63.571
马家弄小区,43490,120.18890380859376,30.26832771301269,68.172
醋坊新村,40277,120.19026947021484,30.26563835144043,65.078
华府丽景家园,26531,120.17726135253906,30.316125869750977,23.01
体育场路2-70号,44002,120.19264221191406,30.276531219482425,61.492
西泠公寓,38251,120.18789672851562,30.27357292175293,59.188
星汇大厦,39195,120.18402862548828,30.28390121459961,43.766
珠碧一弄12号,32867,120.19184112548828,30.264352798461914,60.987
柏枝巷小区,59319,120.18378448486328,30.26443672180176,63.44
潮鸣小区,40425,120.1880340576172,30.26689910888672,64.791
凤鸣苑,43032,120.1918716430664,30.266624450683594,62.75
凤起路小区,39891,120.18911743164062,30.270278930664066,61.846
锦绣大地,56900,120.16465759277344,30.26842498779297,69.844
丽景东苑,38709,120.18560791015624,30.27869415283203,58.416
所巷,42970,120.1881103515625,30.27181053161621,71.223
体东社区,44958,120.19091796875,30.2774715423584,61.177
体育场路45号,44949,120.1911392211914,30.275978088378906,38.801
万景阁,42492,120.18966674804688,30.26985168457031,58.416
翔龙阁,62229,120.1918716430664,30.26511383056641,76.939
德胜东村,33174,120.17996215820312,30.30374336242676,53.115
德胜新村,33587,120.16810607910156,30.30236625671387,61.312
杭氧宿舍,33534,120.17818450927734,30.30636978149414,57.231
电信巷,33549,120.1812973022461,30.3089656829834,50.44
东新关,33045,120.17017364501952,30.301891326904297,56.25
德胜新村南,32265,120.16822052001952,30.30118179321289,58.511
杭锅新村,30618,120.17770385742188,30.302343368530273,64.497
长木新村,29197,120.17855834960938,30.306720733642575,56.594
德胜路小区,44628,120.1695785522461,30.302570343017575,63.351
德胜路177号,41352,120.17321014404295,30.30321884155273,69.391
万家星城,42067,120.18072509765624,30.329593658447266,56.403
杭州新天地世嘉新座,32269,120.1907196044922,30.332033157348636,35.02
中大银泰城公寓,22647,120.18020629882812,30.333478927612305,52.697
杭州新天地世嘉铭座,24944,120.18978118896484,30.31549644470215,47.4
东新园,33967,120.18587493896484,30.31425476074219,54.315
新天地中心公寓,28994,120.1855239868164,30.326904296875,53.786
六塘公寓,33348,120.17571258544922,30.31189346313477,56.529
欣景苑,31178,120.1924285888672,30.326717376708984,56.365
长德公寓,33924,120.18087005615234,30.310508728027344,56.199
东新园雪峰苑,31771,120.1888427734375,30.318443298339844,52.88
东新园望景苑,31746,120.18833923339844,30.31670188903809,53.746
东新园新湖苑,33215,120.1844482421875,30.31970977783203,55.264
祥和人家,30289,120.1894989013672,30.34195327758789,54.964
新德佳苑,39272,120.1866226196289,30.305992126464844,52.229
东新园茗盛苑,32244,120.18571472167969,30.31418800354004,50.177
五里塘苑,37982,120.18096923828124,30.29379272460937,55.131
香石公寓,47290,120.17487335205078,30.316585540771484,51.116
东新园东荷星苑,33661,120.186767578125,30.31829833984375,25.715
长兴公寓,35962,120.18133544921876,30.311771392822266,54.293
灯塔新村,34876,120.1771469116211,30.31575012207031,58.492
万科新都会1958,45187,120.19037628173828,30.307395935058594,31.282
东新园孚信苑,31572,120.1856918334961,30.314197540283203,61.248
龙元东新府,39511,120.18645477294922,30.320104598999023,50.945
西文北苑,32441,,,30.0
怡乐银座,15714,120.2100601196289,30.346546173095703,64.661
重机宿舍,32758,120.1816177368164,30.320024490356445,50.87
新鼎家园,24019,120.19316864013672,30.3385066986084,49.345
北景园,30079,120.19152069091795,30.338794708251953,54.795
长木里,25081,120.18280792236328,30.30841636657715,57.995
长隆公寓,30081,120.18511199951172,30.3109130859375,59.235
长浜苑,30076,120.19125366210938,30.315288543701172,51.463
大成巷,38045,120.17347717285156,30.30919075012207,59.085
东新桥,15649,120.17296600341795,30.297992706298828,43.255
东新路799号,25870,120.19818878173828,30.344867706298828,47.24
东新路小区,30673,120.1886215209961,30.29599952697754,49.95
华东园,38168,120.1684341430664,30.29568672180176,58.651
杭钢宿舍,25095,120.18299102783205,30.321006774902344,49.33
