[{"name":"松木场河东","price":57287,"longitude":120.1551513672,"latitude":30.2763614655,"rate_score":175.707},
{"name":"胜利新村","price":54222,"longitude":120.1588897705,"latitude":30.2765140533,"rate_score":166.122},
{"name":"友谊新村","price":52891,"longitude":120.1505737305,"latitude":30.273935318,"rate_score":122.027},
{"name":"金祝新村","price":56266,"longitude":120.1574935913,"latitude":30.2754917145,"rate_score":129.667},
{"name":"松木场河西","price":54452,"longitude":120.1535720825,"latitude":30.2753562927,"rate_score":147.518},
{"name":"曙光路小区","price":55203,"longitude":120.137046814,"latitude":30.263458252,"rate_score":142.97},
{"name":"桃园新村","price":58920,"longitude":120.1531219482,"latitude":30.2724914551,"rate_score":156.5},
{"name":"王家弄小区","price":51548,"longitude":120.1530303955,"latitude":30.2743396759,"rate_score":28.435},
{"name":"铁路新村西湖","price":51065,"longitude":119.0525283813,"latitude":29.5998859406,"rate_score":31.135},
{"name":"莫干山路79号","price":59060,"longitude":120.160369873,"latitude":30.2801647186,"rate_score":202.631},
{"name":"玉古路小区","price":56909,"longitude":120.1324996948,"latitude":30.2678127289,"rate_score":121.544},
{"name":"保俶路小区","price":58267,"longitude":120.1558380127,"latitude":30.2709178925,"rate_score":132.182},
{"name":"亚洲城花园东区","price":44360,"longitude":120.1184310913,"latitude":30.28166008,"rate_score":150.886},
{"name":"保俶小区","price":57179,"longitude":120.1530303955,"latitude":30.2725334167,"rate_score":169.571},
{"name":"栖霞岭","price":65588,"longitude":120.1406860352,"latitude":30.2593383789,"rate_score":25.13},
{"name":"仁寿山","price":56671,"longitude":120.1354904175,"latitude":30.2614307404,"rate_score":24.485},
{"name":"金祝花园","price":59877,"longitude":120.1586380005,"latitude":30.275844574,"rate_score":126.678},
{"name":"宝麓山庄","price":39062,"longitude":120.1547088623,"latitude":30.2687149048,"rate_score":104.95},
{"name":"宝石新村","price":67842,"longitude":120.1538009644,"latitude":30.2701854706,"rate_score":133.35},
{"name":"龙游路小区","price":44828,"longitude":120.1654663086,"latitude":30.2672557831,"rate_score":126.716},
{"name":"白沙泉","price":56962,"longitude":120.1432876587,"latitude":30.2707309723,"rate_score":106.98},
{"name":"宝石社区","price":73160,"longitude":120.157951355,"latitude":30.2685127258,"rate_score":24.96},
{"name":"宝石二路小区","price":60785,"longitude":120.1530303955,"latitude":30.2704753876,"rate_score":115.953},
{"name":"北山路小区","price":55778,"longitude":120.150642395,"latitude":30.2619018555,"rate_score":26.045},
{"name":"保俶花园","price":39961,"longitude":120.1463928223,"latitude":30.2882518768,"rate_score":25.56},
{"name":"宝石山下五弄","price":61250,"longitude":120.1555480957,"latitude":30.2690849304,"rate_score":205.105},
{"name":"宝石山下二弄","price":61173,"longitude":120.1578979492,"latitude":30.2671031952,"rate_score":185.4},
{"name":"城河下小区","price":60561,"longitude":120.1613616943,"latitude":30.2693195343,"rate_score":94.28},
{"name":"达盟山庄商务公寓","price":57066,"longitude":120.1580963135,"latitude":30.2679748535,"rate_score":151.505},
{"name":"东山弄社区","price":66738,"longitude":120.1351852417,"latitude":30.2642860413,"rate_score":153.17},
{"name":"芳草苑","price":37117,"longitude":120.1484832764,"latitude":30.2857704163,"rate_score":171.635},
{"name":"葛岭山庄","price":57066,"longitude":120.151184082,"latitude":30.2645626068,"rate_score":26.185},
{"name":"杭大路46号院","price":66189,"longitude":120.1477890015,"latitude":30.2749385834,"rate_score":34.19},
{"name":"嘉华国际公寓","price":58530,"longitude":120.1470489502,"latitude":30.2760162354,"rate_score":118.19},
{"name":"教工路138号院","price":59632,"longitude":120.1434631348,"latitude":30.2870159149,"rate_score":122.293},
{"name":"昆仑大厦","price":58275,"longitude":120.1568908691,"latitude":30.2746906281,"rate_score":131.705},
{"name":"留博楼","price":49744,"longitude":120.1368408203,"latitude":30.2702827454,"rate_score":149.118},
{"name":"绿宝公寓","price":57584,"longitude":120.1579742432,"latitude":30.2687969208,"rate_score":100.04},
{"name":"马塍路20号","price":60488,"longitude":120.1543426514,"latitude":30.2836494446,"rate_score":97.163},
{"name":"跑马场巷","price":66196,"longitude":120.1452102661,"latitude":30.2745742798,"rate_score":104.48},
{"name":"翠苑一区","price":40894,"longitude":120.1343460083,"latitude":30.2918949127,"rate_score":222.635},
{"name":"翠苑三区","price":39316,"longitude":120.1276473999,"latitude":30.2961788177,"rate_score":27.025},
{"name":"翠苑五区","price":37274,"longitude":120.1277313232,"latitude":30.2895202637,"rate_score":303.54},
{"name":"翠苑四区","price":39593,"longitude":120.1275939941,"latitude":30.2936210632,"rate_score":151.339},
{"name":"庆隆苑","price":36007,"longitude":120.1276321411,"latitude":30.3016414642,"rate_score":155.526},
{"name":"翠苑二区","price":40052,"longitude":120.1344528198,"latitude":30.295337677,"rate_score":29.085},
{"name":"金色蓝庭","price":51538,"longitude":120.1234207153,"latitude":30.2946395874,"rate_score":166.513},
{"name":"翠苑东二区","price":37425,"longitude":120.1357421875,"latitude":30.299287796,"rate_score":166.556},
{"name":"翠苑逸景湾","price":38464,"longitude":120.1291885376,"latitude":30.2992038727,"rate_score":166.846},
{"name":"桃源春居","price":32871,"longitude":120.1194152832,"latitude":30.2970905304,"rate_score":154.382},
{"name":"学院春晓","price":42127,"longitude":120.134262085,"latitude":30.2994232178,"rate_score":150.906},
{"name":"文二路小区","price":62196,"longitude":120.1487579346,"latitude":30.2894153595,"rate_score":137.788},
{"name":"翠苑北二区","price":34565,"longitude":120.1345901489,"latitude":30.2975196838,"rate_score":154.615},
{"name":"教工里","price":28557,"longitude":120.1403045654,"latitude":30.3006019592,"rate_score":134.114},
{"name":"古荡湾南苑","price":14122,"longitude":120.1305389404,"latitude":30.2823448181,"rate_score":98.766},
{"name":"翠苑佳居","price":44886,"longitude":120.1301727295,"latitude":30.2991943359,"rate_score":213.358},
{"name":"翠苑东四区","price":44158,"longitude":120.1310958862,"latitude":30.2924671173,"rate_score":149.866},
{"name":"保亭社区","price":68832,"longitude":120.1400375366,"latitude":30.2964515686,"rate_score":189.955},
{"name":"翠苑小区","price":46275,"longitude":120.1381149292,"latitude":30.2969360352,"rate_score":26.845},
{"name":"古荡湾新村","price":28053,"longitude":120.1322784424,"latitude":30.2918052673,"rate_score":175.708},
{"name":"莫干山路599号","price":52271,"longitude":120.1497039795,"latitude":30.2977714539,"rate_score":29.48},
{"name":"宋江苑","price":45047,"longitude":120.1275863647,"latitude":30.2984981537,"rate_score":35.79},
{"name":"省广电厅宿舍","price":36940,"longitude":120.1102905273,"latitude":30.2746887207,"rate_score":113.14},
{"name":"团校宿舍","price":53422,"longitude":120.1425018311,"latitude":30.2898292542,"rate_score":123.37},
{"name":"文菁花苑","price":35125,"longitude":120.1315307617,"latitude":30.2956600189,"rate_score":125.545},
{"name":"文一路小区","price":46345,"longitude":120.1299057007,"latitude":30.2938327789,"rate_score":25.105},
{"name":"文三路402号院","price":42454,"longitude":120.1329650879,"latitude":30.2834339142,"rate_score":146.29},
{"name":"学院路178号","price":47689,"longitude":120.135848999,"latitude":30.2898788452,"rate_score":149.665},
{"name":"学苑春晓","price":0,"longitude":null,"latitude":null,"rate_score":0.0},
{"name":"学院路99号","price":51592,"longitude":120.1355819702,"latitude":30.2837219238,"rate_score":29.51},
{"name":"营盘地","price":68905,"longitude":120.1395263672,"latitude":30.2868423462,"rate_score":146.37},
{"name":"浙大文一路小区","price":68832,"longitude":120.1401977539,"latitude":30.2951202393,"rate_score":125.415},
{"name":"古荡新村西区","price":34990,"longitude":120.1200866699,"latitude":30.281545639,"rate_score":193.915},
{"name":"嘉绿西苑","price":43857,"longitude":120.1172637939,"latitude":30.2859859467,"rate_score":184.905},
{"name":"古荡新村东区","price":35535,"longitude":120.1238708496,"latitude":30.2811279297,"rate_score":201.249},
{"name":"坤和山水人家三期","price":39687,"longitude":120.116859436,"latitude":30.2783508301,"rate_score":161.833},
{"name":"嘉绿青苑","price":42697,"longitude":120.1223373413,"latitude":30.2846794128,"rate_score":27.86},
{"name":"嘉绿文苑","price":39221,"longitude":120.1202774048,"latitude":30.2834033966,"rate_score":26.205},
{"name":"龙湖唐宁ONE","price":51236,"longitude":120.1248550415,"latitude":30.2913360596,"rate_score":24.45},
{"name":"山水人家","price":37976,"longitude":120.1152114868,"latitude":30.2765312195,"rate_score":176.797},
{"name":"毛家桥公寓","price":47029,"longitude":120.1229095459,"latitude":30.2919120789,"rate_score":151.791},
{"name":"亚洲城花园西区","price":35876,"longitude":120.1188659668,"latitude":30.281452179,"rate_score":167.43},
{"name":"南都银座公寓","price":37966,"longitude":120.1191711426,"latitude":30.2878570557,"rate_score":182.074},
{"name":"西苑小区","price":28014,"longitude":120.1198959351,"latitude":30.2980575562,"rate_score":120.701},
{"name":"嘉绿莲苑","price":43545,"longitude":120.1234970093,"latitude":30.2882137299,"rate_score":129.389},
{"name":"万塘路小区","price":42658,"longitude":120.1303253174,"latitude":30.2868423462,"rate_score":132.024},
{"name":"文三西路小区","price":42033,"longitude":120.115814209,"latitude":30.2821235657,"rate_score":129.235},
{"name":"月桂花园别墅","price":40106,"longitude":120.112197876,"latitude":30.2823104858,"rate_score":132.493},
{"name":"丹桂花园","price":49036,"longitude":120.1047134399,"latitude":30.2816047668,"rate_score":113.028},
{"name":"东岳公寓","price":19355,"longitude":120.0968704224,"latitude":30.2611732483,"rate_score":193.855},
{"name":"古荡桥","price":56674,"longitude":120.1298675537,"latitude":30.2828235626,"rate_score":171.575},
{"name":"古荡湾北苑","price":45449,"longitude":120.1294784546,"latitude":30.2861022949,"rate_score":108.185},
{"name":"古荡小区","price":51537,"longitude":120.1223602295,"latitude":30.2784252167,"rate_score":133.968},
{"name":"古南社区","price":49175,"longitude":120.1209945679,"latitude":30.2792682648,"rate_score":128.73},
{"name":"华立碧水铭苑别墅","price":24045,"longitude":120.0465011597,"latitude":30.2819347382,"rate_score":87.285},
{"name":"黄姑山庄","price":41626,"longitude":120.1406860352,"latitude":30.2812576294,"rate_score":32.66},
{"name":"华星科技苑","price":51675,"longitude":120.1304473877,"latitude":30.2800102234,"rate_score":38.32},
{"name":"杭大路38号院","price":68444,"longitude":120.148651123,"latitude":30.275472641,"rate_score":197.215},
{"name":"嘉绿南苑","price":40878,"longitude":120.1242828369,"latitude":30.2844810486,"rate_score":160.01},
{"name":"聚龙大厦公寓","price":66206,"longitude":120.145942688,"latitude":30.2750778198,"rate_score":138.1},
{"name":"聚丰公寓","price":59671,"longitude":120.1340560913,"latitude":30.2773170471,"rate_score":193.85},
{"name":"嘉乐金座","price":35182,"longitude":120.1205291748,"latitude":30.293132782,"rate_score":98.9},
{"name":"浪琴翠园","price":45511,"longitude":120.1340484619,"latitude":30.3024768829,"rate_score":152.163},
{"name":"蓝海时代国际大厦","price":39671,"longitude":120.1199798584,"latitude":30.286277771,"rate_score":37.51},
{"name":"龙都大厦公寓","price":51903,"longitude":120.125869751,"latitude":30.2787380219,"rate_score":143.675},
{"name":"老东岳别墅","price":52789,"longitude":120.1014328003,"latitude":30.2646350861,"rate_score":93.96},
{"name":"炮台公寓","price":37976,"longitude":120.11378479,"latitude":30.2776145935,"rate_score":76.31},
{"name":"省高院华星路宿舍","price":45437,"longitude":120.1293258667,"latitude":30.2856025696,"rate_score":120.33},
{"name":"省统计局宿舍","price":43026,"longitude":120.141166687,"latitude":30.2870635986,"rate_score":54.575},
{"name":"天目山路338号","price":51903,"longitude":120.1289749146,"latitude":30.2785263062,"rate_score":163.875},
{"name":"益乐新村","price":20724,"longitude":120.1170043945,"latitude":30.2887306213,"rate_score":90.825},
{"name":"亚洲城别墅","price":34547,"longitude":120.1192932129,"latitude":30.2823390961,"rate_score":110.236},
{"name":"求是新村","price":65079,"longitude":120.1344833374,"latitude":30.2694759369,"rate_score":138.675},
{"name":"世贸丽晶城","price":67305,"longitude":120.1446685791,"latitude":30.2796421051,"rate_score":186.665},
{"name":"外东山弄","price":60050,"longitude":120.1346588135,"latitude":30.2635784149,"rate_score":166.063},
{"name":"曙光新村","price":66593,"longitude":120.137588501,"latitude":30.2671661377,"rate_score":116.833},
{"name":"绿园","price":64803,"longitude":120.1353607178,"latitude":30.2716007233,"rate_score":206.167},
{"name":"黄龙雅苑","price":60732,"longitude":120.1446533203,"latitude":30.2756824493,"rate_score":230.123},
{"name":"庆丰新村","price":46121,"longitude":120.133354187,"latitude":30.2750892639,"rate_score":140.968},
{"name":"里东山弄","price":58944,"longitude":120.1356964111,"latitude":30.2645721436,"rate_score":165.069},
{"name":"梧桐公寓","price":52601,"longitude":120.1358642578,"latitude":30.2929973602,"rate_score":59.13},
{"name":"丁香公寓","price":44451,"longitude":120.1383132935,"latitude":30.2773284912,"rate_score":34.074},
{"name":"曙光公寓","price":66607,"longitude":120.1371612549,"latitude":30.2623748779,"rate_score":113.89},
{"name":"国际花园","price":31693,"longitude":120.1443557739,"latitude":30.2779941559,"rate_score":180.595},
{"name":"世贸丽晶城EAC公寓","price":64000,"longitude":120.1436691284,"latitude":30.2798805237,"rate_score":52.734},
{"name":"世贸丽晶城栖霞苑","price":61207,"longitude":120.1486434937,"latitude":30.2778911591,"rate_score":125.468},
{"name":"世贸丽晶城初阳苑","price":55505,"longitude":120.1486434937,"latitude":30.2778911591,"rate_score":46.82},
{"name":"桃花弄小区","price":54654,"longitude":120.1562728882,"latitude":30.2750034332,"rate_score":144.973},
{"name":"天目山路101号","price":46014,"longitude":120.1078796387,"latitude":30.2729454041,"rate_score":84.145},
{"name":"世贸丽晶城望湖苑","price":58871,"longitude":120.1486434937,"latitude":30.2778911591,"rate_score":140.891},
{"name":"世贸丽晶城玉泉苑","price":58548,"longitude":120.1486434937,"latitude":30.2778911591,"rate_score":127.993},
{"name":"世贸丽晶城宝石苑","price":61733,"longitude":120.1486434937,"latitude":30.2778911591,"rate_score":165.22},
{"name":"黄龙世纪苑","price":58542,"longitude":120.1458129883,"latitude":30.2761650085,"rate_score":113.24},
{"name":"黄龙雅苑公寓","price":65323,"longitude":120.1446609497,"latitude":30.2755031586,"rate_score":48.935},
{"name":"教工路131号院","price":70320,"longitude":120.141746521,"latitude":30.2903003693,"rate_score":32.085},
{"name":"欧美中心","price":27611,"longitude":120.1435928345,"latitude":30.2776031494,"rate_score":23.63},
{"name":"天目山路228号","price":66342,"longitude":120.134185791,"latitude":30.2797355652,"rate_score":126.075},
{"name":"华苑公寓","price":55851,"longitude":120.1045074463,"latitude":30.2936935425,"rate_score":158.46},
{"name":"政新花园","price":54196,"longitude":120.1054382324,"latitude":30.2970695496,"rate_score":160.01},
{"name":"紫荆欣苑","price":67403,"longitude":120.1000900269,"latitude":30.298286438,"rate_score":62.413},
{"name":"泰和中央广场","price":32105,"longitude":null,"latitude":null,"rate_score":6.47},
{"name":"金桂大厦","price":24451,"longitude":120.1057434082,"latitude":30.2882976532,"rate_score":181.435},
{"name":"星洲花园排屋","price":67035,"longitude":120.1019515991,"latitude":30.2951183319,"rate_score":134.29},
{"name":"登新公寓","price":21842,"longitude":120.0964126587,"latitude":30.2841949463,"rate_score":135.25},
{"name":"富越香墅","price":47837,"longitude":120.0958251953,"latitude":30.2972335815,"rate_score":110.843},
{"name":"蒋村花园","price":25489,"longitude":120.0889205933,"latitude":30.2893180847,"rate_score":56.82},
{"name":"嘉禾花苑","price":35177,"longitude":120.1024169922,"latitude":30.2781906128,"rate_score":27.115},
{"name":"骆家庄西苑","price":23655,"longitude":120.0991821289,"latitude":30.2914237976,"rate_score":77.51},
{"name":"通策在河之洲","price":40964,"longitude":120.0435638428,"latitude":30.2779159546,"rate_score":115.51},
{"name":"许家坞","price":51916,"longitude":116.9833450317,"latitude":29.2464542389,"rate_score":49.325},
{"name":"香墅","price":46026,"longitude":120.0958557129,"latitude":30.2972507477,"rate_score":28.005},
{"name":"九莲新村","price":36708,"longitude":120.137588501,"latitude":30.2845859528,"rate_score":179.67},
{"name":"枫华府第","price":51347,"longitude":120.1341705322,"latitude":30.2878131866,"rate_score":195.23},
{"name":"花园南村","price":60296,"longitude":120.1408996582,"latitude":30.2890911102,"rate_score":174.195},
{"name":"天苑花园","price":28661,"longitude":120.1290664673,"latitude":30.283744812,"rate_score":62.041},
{"name":"启真名苑","price":57478,"longitude":120.1516952515,"latitude":30.2786712646,"rate_score":123.51},
{"name":"西湖明珠公寓","price":36685,"longitude":120.1300430298,"latitude":30.2842273712,"rate_score":158.849},
{"name":"花园西村","price":59092,"longitude":120.1366348267,"latitude":30.288433075,"rate_score":147.57},
{"name":"华远大厦","price":33473,"longitude":120.1325378418,"latitude":30.2827224731,"rate_score":65.109},
{"name":"花园北村","price":56186,"longitude":120.1388626099,"latitude":30.2897605896,"rate_score":175.169},
{"name":"景城花园","price":47324,"longitude":120.1338653564,"latitude":30.2849407196,"rate_score":158.647},
{"name":"华门世家","price":33133,"longitude":120.1366500854,"latitude":30.2825660706,"rate_score":130.015},
{"name":"华星公寓","price":40469,"longitude":120.1295318604,"latitude":30.2851161957,"rate_score":61.248},
{"name":"黄姑山路小区","price":40842,"longitude":120.1403045654,"latitude":30.2813415527,"rate_score":149.099},
{"name":"康新花园","price":28090,"longitude":120.1274414062,"latitude":30.2818374634,"rate_score":173.47},
{"name":"中融城市花园","price":45949,"longitude":120.1350860596,"latitude":30.2781600952,"rate_score":178.775},
{"name":"花园新村","price":66313,"longitude":120.1441192627,"latitude":30.2864341736,"rate_score":150.827},
{"name":"教师公寓","price":89570,"longitude":120.1298675537,"latitude":30.2874298096,"rate_score":136.596},
{"name":"教工路65号院","price":39537,"longitude":120.1419906616,"latitude":30.2861175537,"rate_score":142.605},
{"name":"教工路52号","price":64739,"longitude":120.1432037354,"latitude":30.2820777893,"rate_score":146.0},
{"name":"曲荷巷小区","price":37159,"longitude":120.1364517212,"latitude":30.2811317444,"rate_score":105.026},
{"name":"塘苗路28号","price":36750,"longitude":120.1277542114,"latitude":30.2805271149,"rate_score":145.2},
{"name":"伟星大厦","price":33429,"longitude":120.1420516968,"latitude":30.2834835052,"rate_score":109.566},
{"name":"文三路小区","price":60482,"longitude":120.1520843506,"latitude":30.2835712433,"rate_score":50.935},
{"name":"伟星公寓","price":46730,"longitude":120.1405563354,"latitude":30.2834415436,"rate_score":151.415},
{"name":"欣园居","price":54093,"longitude":120.1433334351,"latitude":30.2830924988,"rate_score":173.64},
{"name":"学院路59号","price":47685,"longitude":120.1359634399,"latitude":30.2892951965,"rate_score":148.315},
{"name":"影业路小区","price":57206,"longitude":120.1407852173,"latitude":30.2863750458,"rate_score":195.865},
{"name":"中兴文都苑","price":44987,"longitude":120.1315917969,"latitude":30.2818565369,"rate_score":48.33},
{"name":"西湖花园别墅","price":49786,"longitude":120.1107330322,"latitude":30.1852016449,"rate_score":29.503},
{"name":"杭大新村","price":51534,"longitude":120.1494369507,"latitude":30.2754650116,"rate_score":84.87},
{"name":"白乐人家","price":33831,"longitude":120.1148071289,"latitude":30.2503318787,"rate_score":68.465},
{"name":"白乐桥","price":71333,"longitude":120.1141204834,"latitude":30.2511711121,"rate_score":30.695},
{"name":"常安度假别墅","price":40440,"longitude":120.072555542,"latitude":30.1777057648,"rate_score":30.886},
{"name":"九里松花苑","price":56696,"longitude":120.1246261597,"latitude":30.2513008118,"rate_score":49.025},
{"name":"梅家坞","price":67703,"longitude":120.0954742432,"latitude":30.211019516,"rate_score":48.64},
{"name":"庆丰公寓","price":59689,"longitude":120.1301651001,"latitude":30.2768478394,"rate_score":34.79},
{"name":"三台云舍","price":55005,"longitude":120.1397781372,"latitude":30.2336063385,"rate_score":27.4},
{"name":"天竺路小区","price":67673,"longitude":120.1124420166,"latitude":30.2458515167,"rate_score":26.975},
{"name":"天竺路别墅","price":56404,"longitude":120.1124420166,"latitude":30.2458515167,"rate_score":26.815},
{"name":"五云山庄","price":35188,"longitude":120.1182327271,"latitude":30.1925392151,"rate_score":21.755},
{"name":"下满觉陇","price":10387,"longitude":120.1415252686,"latitude":30.2231674194,"rate_score":22.195},
{"name":"铂悦城","price":26658,"longitude":null,"latitude":null,"rate_score":0.0},
{"name":"和家园","price":42906,"longitude":120.0681762695,"latitude":30.239648819,"rate_score":115.895},
{"name":"翰墨香林苑","price":21027,"longitude":120.0239257812,"latitude":30.2166919708,"rate_score":28.67},
{"name":"和家园(南区)","price":43708,"longitude":null,"latitude":null,"rate_score":27.5},
{"name":"复地黄龙和山","price":39867,"longitude":120.0712585449,"latitude":30.2482318878,"rate_score":92.98},
{"name":"浪漫和山","price":21189,"longitude":120.0199432373,"latitude":30.218454361,"rate_score":36.262},
{"name":"留下西苑","price":30280,"longitude":120.059928894,"latitude":30.2475681305,"rate_score":125.485},
{"name":"浪漫和山别墅","price":26126,"longitude":120.0312728882,"latitude":30.2099628448,"rate_score":28.09},
{"name":"西溪明珠","price":54932,"longitude":120.0655975342,"latitude":30.2581272125,"rate_score":64.066},
{"name":"滨江西溪明珠","price":53100,"longitude":120.0664672852,"latitude":30.2543888092,"rate_score":31.6},
{"name":"西溪十九府公寓","price":22583,"longitude":120.0366363525,"latitude":30.2178249359,"rate_score":57.103},
{"name":"西溪晴雪","price":41917,"longitude":120.0629043579,"latitude":30.2503986359,"rate_score":103.36},
{"name":"屏峰新村","price":31733,"longitude":120.0557098389,"latitude":30.2296142578,"rate_score":36.604},
{"name":"茶市新村","price":30258,"longitude":120.0634155273,"latitude":30.246427536,"rate_score":112.2},
{"name":"九月森林别墅","price":32255,"longitude":120.0286560059,"latitude":30.2145900726,"rate_score":52.655},
{"name":"留下街13号小区","price":28275,"longitude":null,"latitude":null,"rate_score":0.0},
{"name":"西溪梅园","price":29986,"longitude":120.0662231445,"latitude":30.2476100922,"rate_score":104.624},
{"name":"坤和求是里","price":42542,"longitude":120.0738601685,"latitude":30.2464828491,"rate_score":109.115},
{"name":"留下街石油小区","price":33292,"longitude":120.0557861328,"latitude":30.2495822906,"rate_score":122.786},
{"name":"九月森林","price":41543,"longitude":120.0500411987,"latitude":30.2279148102,"rate_score":52.38},
{"name":"留庄","price":34486,"longitude":120.0744400024,"latitude":30.260515213,"rate_score":114.71},
{"name":"五常乡白庙村","price":31621,"longitude":120.0487213135,"latitude":30.2674160004,"rate_score":48.183},
{"name":"西溪名园别墅","price":36204,"longitude":120.0802841187,"latitude":30.26420784,"rate_score":34.071},
{"name":"西溪佳苑","price":21351,"longitude":120.074508667,"latitude":30.2491321564,"rate_score":117.337},
{"name":"西溪壹树公寓","price":23351,"longitude":120.0621948242,"latitude":30.2518348694,"rate_score":156.89},
{"name":"云山秀水","price":24379,"longitude":120.0146102905,"latitude":30.2147827148,"rate_score":34.496},
{"name":"安乐新村","price":32618,"longitude":120.0649337769,"latitude":30.2476596832,"rate_score":88.845},
{"name":"东木坞村","price":18505,"longitude":120.0645217896,"latitude":30.248960495,"rate_score":151.535},
{"name":"黄龙和山公寓","price":40719,"longitude":120.0709228516,"latitude":30.2476634979,"rate_score":47.625},
{"name":"海陆UN公社","price":29791,"longitude":120.0468139648,"latitude":30.224187851,"rate_score":37.085},
{"name":"花坞新村","price":19355,"longitude":120.0833892822,"latitude":30.2616233826,"rate_score":127.123},
{"name":"坤和和家园别墅","price":54655,"longitude":120.0650177002,"latitude":30.2473602295,"rate_score":77.23},
{"name":"留和家苑","price":28296,"longitude":120.061088562,"latitude":30.243013382,"rate_score":92.973},
{"name":"留庄别墅","price":44203,"longitude":120.0789108276,"latitude":30.2619380951,"rate_score":30.735},
{"name":"留下大街小区","price":36751,"longitude":120.0592651367,"latitude":30.2450466156,"rate_score":100.78},
{"name":"苗圃宿舍","price":19350,"longitude":120.0964736938,"latitude":30.265127182,"rate_score":89.355},
{"name":"石油地质勘探小区","price":30592,"longitude":120.0664825439,"latitude":30.2481575012,"rate_score":104.525},
{"name":"小和山林野山居","price":25880,"longitude":120.0352249146,"latitude":30.2196865082,"rate_score":28.45},
{"name":"西溪君逸汇","price":22460,"longitude":120.0634231567,"latitude":30.2458057404,"rate_score":139.786},
{"name":"西苑新村","price":37185,"longitude":120.0589370728,"latitude":30.247549057,"rate_score":110.72},
{"name":"都市阳光嘉苑","price":26611,"longitude":120.0743637085,"latitude":30.3430652618,"rate_score":100.513},
{"name":"金地自在城林溪里","price":37130,"longitude":120.0750198364,"latitude":30.3370952606,"rate_score":0.0},
{"name":"金地自在城","price":38428,"longitude":120.0852966309,"latitude":30.3436698914,"rate_score":100.455},
{"name":"中国铁建西湖国际城","price":29297,"longitude":120.0741271973,"latitude":30.3388729095,"rate_score":23.5},
{"name":"协安紫郡","price":35281,"longitude":120.0793762207,"latitude":30.331407547,"rate_score":97.93},
{"name":"中海紫藤苑","price":34398,"longitude":120.0747146606,"latitude":30.3300991058,"rate_score":155.26},
{"name":"龙湖水晶郦城","price":28624,"longitude":120.0723495483,"latitude":30.3496055603,"rate_score":115.005},
{"name":"都市水乡水秀苑","price":27814,"longitude":120.0992584229,"latitude":30.3299045563,"rate_score":116.43},
{"name":"紫金名门","price":35015,"longitude":120.0919876099,"latitude":30.3241577148,"rate_score":150.165},
{"name":"金地自在城鹭影轩","price":36920,"longitude":120.0713729858,"latitude":30.333902359,"rate_score":35.956},
{"name":"景溪北苑","price":27344,"longitude":120.0732879639,"latitude":30.3549995422,"rate_score":37.5},
{"name":"中兴墩莳家园","price":26828,"longitude":120.078666687,"latitude":30.338054657,"rate_score":60.494},
{"name":"白马尊邸","price":34253,"longitude":120.0872421265,"latitude":30.3405609131,"rate_score":173.046},
{"name":"宝嘉誉府","price":34819,"longitude":120.08984375,"latitude":30.3197555542,"rate_score":37.874},
{"name":"新星小区","price":29179,"longitude":120.093421936,"latitude":30.3284168243,"rate_score":143.221},
{"name":"亲亲家园三期","price":27552,"longitude":120.0902633667,"latitude":30.341342926,"rate_score":163.465},
{"name":"杭州金地广场","price":24520,"longitude":120.0894775391,"latitude":30.3453826904,"rate_score":138.835},
{"name":"国风美域","price":36735,"longitude":120.1001968384,"latitude":30.3237037659,"rate_score":35.78},
{"name":"润达花园","price":28200,"longitude":120.0972747803,"latitude":30.3320789337,"rate_score":156.74},
{"name":"丰盛九玺公寓","price":11169,"longitude":null,"latitude":null,"rate_score":49.86},
{"name":"铭雅苑","price":27191,"longitude":120.0922622681,"latitude":30.3445205688,"rate_score":146.077},
{"name":"港湾家园","price":43678,"longitude":120.0925216675,"latitude":30.3166313171,"rate_score":61.398},
{"name":"金地自在城悦活轩","price":34698,"longitude":120.0760116577,"latitude":30.3362789154,"rate_score":34.324},
{"name":"爱尚里","price":18503,"longitude":120.0857925415,"latitude":30.320936203,"rate_score":94.552},
{"name":"金地自在城求学里","price":37122,"longitude":120.0778961182,"latitude":30.3396682739,"rate_score":32.834},
{"name":"乾成园","price":28102,"longitude":120.0799331665,"latitude":30.3187236786,"rate_score":68.205},
{"name":"金地自在城栖霞居","price":37480,"longitude":120.0736083984,"latitude":30.3357868195,"rate_score":8.136},
{"name":"都市水乡","price":29915,"longitude":120.0971450806,"latitude":30.3382263184,"rate_score":165.68},
{"name":"新世纪花苑","price":27670,"longitude":120.097076416,"latitude":30.3305854797,"rate_score":105.215},
{"name":"三墩颐景园","price":37815,"longitude":120.0885162354,"latitude":30.3381538391,"rate_score":169.092},
{"name":"兰韵天城","price":35520,"longitude":120.0923080444,"latitude":30.3360671997,"rate_score":135.72},
{"name":"红杉雅园公寓","price":19588,"longitude":120.0994033813,"latitude":30.3345661163,"rate_score":55.314},
{"name":"紫金文苑","price":42032,"longitude":120.1066207886,"latitude":30.3022117615,"rate_score":148.94},
{"name":"西港发展中心","price":12905,"longitude":120.0731048584,"latitude":30.3178634644,"rate_score":109.896},
{"name":"天虹公寓","price":29312,"longitude":120.0985565186,"latitude":30.3200359344,"rate_score":213.421},
{"name":"裕华大厦","price":9830,"longitude":120.0845108032,"latitude":30.3213005066,"rate_score":117.803},
{"name":"中海金溪园","price":37987,"longitude":120.0894775391,"latitude":30.3434257507,"rate_score":147.095},
{"name":"杭州香港城公寓","price":11892,"longitude":120.1083755493,"latitude":30.2814121246,"rate_score":47.675},
{"name":"华彩国际公寓","price":9893,"longitude":120.0763244629,"latitude":30.3273239136,"rate_score":147.527},
{"name":"桔子里","price":12524,"longitude":120.0908355713,"latitude":30.3378677368,"rate_score":53.809},
{"name":"万家花城","price":47094,"longitude":120.1200027466,"latitude":30.3101463318,"rate_score":211.957},
{"name":"中梁申花百悦公馆","price":32738,"longitude":null,"latitude":null,"rate_score":6.272},
{"name":"欣盛东方福邸","price":52030,"longitude":120.1188278198,"latitude":30.3128948212,"rate_score":102.862},
{"name":"招商九龙仓学院北麓","price":43223,"longitude":120.1083068848,"latitude":30.3259410858,"rate_score":71.455},
{"name":"中天西城纪公寓","price":27928,"longitude":120.1177139282,"latitude":30.2997951508,"rate_score":151.12},
{"name":"融信学院府","price":46583,"longitude":120.1127700806,"latitude":30.3221282959,"rate_score":171.67},
{"name":"政苑小区","price":43805,"longitude":120.1108322144,"latitude":30.302438736,"rate_score":182.453},
{"name":"圣苑","price":57118,"longitude":120.1015777588,"latitude":30.3089294434,"rate_score":114.01},
{"name":"西城年华","price":47889,"longitude":120.1080322266,"latitude":30.3156585693,"rate_score":259.588},
{"name":"滨江锦绣之城","price":58882,"longitude":120.1351470947,"latitude":30.3095111847,"rate_score":53.508},
{"name":"资辉壹方汇","price":30598,"longitude":120.1263046265,"latitude":30.3157863617,"rate_score":52.422},
{"name":"碧桂园西江月","price":47238,"longitude":120.1183700562,"latitude":30.3160667419,"rate_score":136.07},
{"name":"协安上郡","price":47089,"longitude":120.1081390381,"latitude":30.3121356964,"rate_score":138.69},
{"name":"龙申剑桥公社","price":10629,"longitude":120.1006164551,"latitude":30.311706543,"rate_score":81.855},
{"name":"赛丽绿城慧园","price":54286,"longitude":120.1121826172,"latitude":30.3125705719,"rate_score":34.525},
{"name":"上尚庭","price":50588,"longitude":120.1187286377,"latitude":30.3060798645,"rate_score":57.355},
{"name":"尚景国际","price":56332,"longitude":120.125038147,"latitude":30.3123664856,"rate_score":59.27},
{"name":"西城美墅","price":52968,"longitude":120.1071395874,"latitude":30.31757164,"rate_score":129.866},
{"name":"融信蓝孔雀","price":49337,"longitude":120.1123962402,"latitude":30.3266162872,"rate_score":36.488},
{"name":"芳满庭","price":45048,"longitude":120.1127319336,"latitude":30.3026714325,"rate_score":146.738},
{"name":"绅华府","price":50337,"longitude":120.1211242676,"latitude":30.3058052063,"rate_score":27.69},
{"name":"金地申花里","price":35515,"longitude":120.1117095947,"latitude":30.3290309906,"rate_score":97.91},
{"name":"丽阳苑","price":45362,"longitude":120.1054992676,"latitude":30.3103122711,"rate_score":87.94},
{"name":"景瑞悦西台","price":48405,"longitude":120.1106414795,"latitude":30.3147850037,"rate_score":172.529},
{"name":"未来印","price":18353,"longitude":120.000831604,"latitude":30.2757701874,"rate_score":0.0},
{"name":"橡树园","price":44985,"longitude":120.1142654419,"latitude":30.3078556061,"rate_score":151.62},
{"name":"三江花园道壹号","price":46275,"longitude":120.1111679077,"latitude":30.324016571,"rate_score":55.91},
{"name":"同人精华公寓","price":22769,"longitude":120.1056594849,"latitude":30.3077869415,"rate_score":70.189},
{"name":"同人广场","price":13204,"longitude":120.1055450439,"latitude":30.3056507111,"rate_score":77.749},
{"name":"保利香槟国际","price":50936,"longitude":120.1170120239,"latitude":30.3143005371,"rate_score":146.864},
{"name":"冠苑小区","price":58158,"longitude":120.1042098999,"latitude":30.3023033142,"rate_score":27.99},
{"name":"景瑞申花壹号院","price":48939,"longitude":120.1121749878,"latitude":30.3144817352,"rate_score":158.453},
{"name":"天阳武林邸","price":57158,"longitude":120.1288223267,"latitude":30.3144817352,"rate_score":134.855},
{"name":"五洲国际公寓","price":24778,"longitude":120.1041793823,"latitude":30.3006057739,"rate_score":124.904},
{"name":"城西银泰城公寓","price":19526,"longitude":120.1141967773,"latitude":30.3059825897,"rate_score":30.624},
{"name":"瑞博国际公寓","price":13127,"longitude":120.1030426025,"latitude":30.3086357117,"rate_score":114.848},
{"name":"方家花苑","price":32448,"longitude":120.1160354614,"latitude":30.3097114563,"rate_score":100.395},
{"name":"新城金镶玉","price":49100,"longitude":120.1103897095,"latitude":30.324005127,"rate_score":133.942},
{"name":"和苑小区","price":42135,"longitude":120.1111907959,"latitude":30.305770874,"rate_score":92.235},
{"name":"申瑞国际","price":19585,"longitude":120.1101226807,"latitude":30.3137569427,"rate_score":63.299},
{"name":"文三新村","price":57690,"longitude":120.151763916,"latitude":30.2831859589,"rate_score":183.55},
{"name":"石灰桥新村","price":51348,"longitude":120.1529769897,"latitude":30.2915935516,"rate_score":202.99},
{"name":"融信杭州公馆","price":57579,"longitude":120.1368331909,"latitude":30.2986125946,"rate_score":57.317},
{"name":"邮电新村","price":61551,"longitude":120.1551437378,"latitude":30.2864074707,"rate_score":209.478},
{"name":"白荡海人家","price":49577,"longitude":120.1493225098,"latitude":30.2951107025,"rate_score":179.642},
{"name":"沈塘新村","price":58889,"longitude":120.1553421021,"latitude":30.2854995728,"rate_score":155.44},
{"name":"金都城市芯宇","price":53209,"longitude":120.143951416,"latitude":30.2948169708,"rate_score":139.165},
{"name":"银马公寓","price":57348,"longitude":120.1439590454,"latitude":30.2938556671,"rate_score":149.062},
{"name":"御西湖","price":69005,"longitude":120.13722229,"latitude":30.2916717529,"rate_score":141.49},
{"name":"建工新村","price":48855,"longitude":120.1542053223,"latitude":30.2885799408,"rate_score":174.593},
{"name":"兰庭国际","price":53675,"longitude":120.1460494995,"latitude":30.2897548676,"rate_score":156.298},
{"name":"武林门新村","price":57793,"longitude":120.1564712524,"latitude":30.2827167511,"rate_score":161.183},
{"name":"西溪河东","price":67500,"longitude":120.1471862793,"latitude":30.2866439819,"rate_score":155.037},
{"name":"华海园","price":49592,"longitude":120.1475753784,"latitude":30.296497345,"rate_score":184.964},
{"name":"溪畔花园","price":49879,"longitude":120.1451797485,"latitude":30.2957248688,"rate_score":219.454},
{"name":"马塍路小区","price":70373,"longitude":120.1548156738,"latitude":30.2815895081,"rate_score":191.619},
{"name":"恒升花苑","price":51475,"longitude":120.1498336792,"latitude":30.2831726074,"rate_score":158.58},
{"name":"文萃苑","price":52378,"longitude":120.1377792358,"latitude":30.2938232422,"rate_score":165.76},
{"name":"武林花园","price":54783,"longitude":120.1557235718,"latitude":30.2793064117,"rate_score":213.127},
{"name":"中豪晴园","price":57026,"longitude":120.1396102905,"latitude":30.2938804626,"rate_score":187.533},
{"name":"郡枫华庭","price":48648,"longitude":120.1465377808,"latitude":30.2963218689,"rate_score":51.27},
{"name":"今日嘉园","price":57068,"longitude":120.1394500732,"latitude":30.295671463,"rate_score":169.585},
{"name":"兴财名都苑","price":51285,"longitude":120.1499862671,"latitude":30.2924556732,"rate_score":246.414},
{"name":"窑背巷","price":55110,"longitude":120.1533889771,"latitude":30.279088974,"rate_score":70.744},
{"name":"师苑新村","price":61634,"longitude":120.1440048218,"latitude":30.2880535126,"rate_score":33.404},
{"name":"日晖新村","price":77035,"longitude":120.1542892456,"latitude":30.2894001007,"rate_score":186.284},
{"name":"文欣苑","price":55544,"longitude":120.1432800293,"latitude":30.2884140015,"rate_score":211.755},
{"name":"文天公寓","price":54930,"longitude":120.1539154053,"latitude":30.2777690887,"rate_score":132.408},
{"name":"混堂巷","price":56114,"longitude":120.157913208,"latitude":30.2804260254,"rate_score":139.534},
{"name":"华门自由21世纪公寓","price":39101,"longitude":120.1416168213,"latitude":30.2984294891,"rate_score":204.57},
{"name":"武林巷小区","price":67110,"longitude":120.1530990601,"latitude":30.2808456421,"rate_score":146.855},
{"name":"浙大宿舍","price":51946,"longitude":120.1477508545,"latitude":30.2944259644,"rate_score":165.741},
{"name":"保俶北路小区","price":62000,"longitude":120.1470108032,"latitude":30.2873630524,"rate_score":141.669},
{"name":"翠锦苑","price":39286,"longitude":120.1325454712,"latitude":30.2990455627,"rate_score":125.066},
{"name":"锦绣文苑","price":53252,"longitude":120.1580047607,"latitude":30.2799835205,"rate_score":164.55},
{"name":"西溪河下","price":52399,"longitude":120.1480178833,"latitude":30.2976036072,"rate_score":162.607},
{"name":"白荡海社区","price":49981,"longitude":120.1491699219,"latitude":30.2979431152,"rate_score":173.833},
{"name":"德雅花园","price":34749,"longitude":120.1416473389,"latitude":30.2969818115,"rate_score":142.636},
{"name":"教工路95号","price":66323,"longitude":120.1418762207,"latitude":30.2878913879,"rate_score":169.584},
{"name":"松溪公寓","price":67772,"longitude":120.1536483765,"latitude":30.2771987915,"rate_score":177.0},
{"name":"世纪新城","price":47462,"longitude":120.1196289062,"latitude":30.2895336151,"rate_score":47.058},
{"name":"雅仕苑","price":45119,"longitude":120.1115951538,"latitude":30.2915019989,"rate_score":309.981},
{"name":"星洲花园","price":53957,"longitude":120.1013183594,"latitude":30.2971286774,"rate_score":144.698},
{"name":"金成花园","price":46635,"longitude":120.1125717163,"latitude":30.2897987366,"rate_score":51.275},
{"name":"嘉绿名苑","price":44765,"longitude":120.1208648682,"latitude":30.2863769531,"rate_score":27.735},
{"name":"南都花园","price":40371,"longitude":120.1103668213,"latitude":30.2950000763,"rate_score":188.113},
{"name":"新金都城市花园","price":50465,"longitude":120.1036758423,"latitude":30.291431427,"rate_score":213.015},
{"name":"高教新村","price":49682,"longitude":120.1029434204,"latitude":30.292881012,"rate_score":145.903},
{"name":"物华小区","price":34259,"longitude":120.1162567139,"latitude":30.2977828979,"rate_score":35.913},
{"name":"恩济花苑","price":40268,"longitude":120.11353302,"latitude":30.2884254456,"rate_score":227.445},
{"name":"嘉绿北苑","price":42923,"longitude":120.1242904663,"latitude":30.2875022888,"rate_score":255.945},
{"name":"桂花城","price":54039,"longitude":120.1025238037,"latitude":30.2876605988,"rate_score":178.631},
{"name":"湖畔花园","price":45214,"longitude":120.1079483032,"latitude":30.2943305969,"rate_score":160.895},
{"name":"紫桂花园","price":51086,"longitude":120.1100540161,"latitude":30.2890377045,"rate_score":214.286},
{"name":"东海名仕家园","price":48072,"longitude":120.1084518433,"latitude":30.2925167084,"rate_score":55.365},
{"name":"湖畔莲花港家园","price":40699,"longitude":120.1158370972,"latitude":30.2967224121,"rate_score":185.652},
{"name":"林语别墅","price":68718,"longitude":120.0969924927,"latitude":30.2887020111,"rate_score":154.322},
{"name":"嘉南公寓","price":53570,"longitude":120.1003723145,"latitude":30.2930698395,"rate_score":161.952},
{"name":"南都德迦","price":41876,"longitude":120.1098098755,"latitude":30.2872276306,"rate_score":194.402},
{"name":"府新花园","price":47187,"longitude":120.0986785889,"latitude":30.2867298126,"rate_score":141.009},
{"name":"嘉绿苑北区","price":44772,"longitude":120.123008728,"latitude":30.2844314575,"rate_score":127.162},
{"name":"兰桂花园","price":48781,"longitude":120.1068496704,"latitude":30.289144516,"rate_score":202.805},
{"name":"南都德迦西区","price":45724,"longitude":120.1096420288,"latitude":30.2864017487,"rate_score":157.462},
{"name":"紫林公寓","price":52382,"longitude":120.0988082886,"latitude":30.2937774658,"rate_score":148.549},
{"name":"天湖公寓","price":35184,"longitude":120.1127166748,"latitude":30.2943229675,"rate_score":163.278},
{"name":"文溪鼎园","price":47996,"longitude":120.1116485596,"latitude":30.2957878113,"rate_score":141.578},
{"name":"嘉绿福苑","price":38109,"longitude":120.1206970215,"latitude":30.2876243591,"rate_score":140.247},
{"name":"金都花园","price":37881,"longitude":120.10496521,"latitude":30.2822704315,"rate_score":274.647},
{"name":"嘉绿苑南区","price":44816,"longitude":120.1234741211,"latitude":30.2841186523,"rate_score":63.978},
{"name":"申悦国际公寓","price":21011,"longitude":120.1030807495,"latitude":30.3078765869,"rate_score":142.719},
{"name":"春天花园","price":40100,"longitude":120.106628418,"latitude":30.2940044403,"rate_score":246.949},
{"name":"天河西苑","price":38039,"longitude":120.1113739014,"latitude":30.2970867157,"rate_score":146.958},
{"name":"阳光地带","price":48856,"longitude":120.0978164673,"latitude":30.293214798,"rate_score":119.749},
{"name":"皇朝城市花园排屋","price":47477,"longitude":120.1017608643,"latitude":30.2802276611,"rate_score":72.302},
{"name":"拱苑小区","price":28007,"longitude":120.1145706177,"latitude":30.3038482666,"rate_score":59.099},
{"name":"嘉绿景苑西园","price":37150,"longitude":120.1071853638,"latitude":30.2820529938,"rate_score":53.565},
{"name":"南都德迦东区","price":46491,"longitude":120.1133728027,"latitude":30.2870101929,"rate_score":183.75},
{"name":"湖畔花园别墅","price":49302,"longitude":120.1094207764,"latitude":30.2935523987,"rate_score":133.231},
{"name":"文二路36号","price":65540,"longitude":120.1520843506,"latitude":30.2898635864,"rate_score":93.405},
{"name":"元茂大厦","price":37669,"longitude":120.1249313354,"latitude":30.2883853912,"rate_score":90.302},
{"name":"香樟公寓","price":43207,"longitude":120.1134719849,"latitude":30.2861213684,"rate_score":158.093},
{"name":"金都新城","price":38269,"longitude":120.1141815186,"latitude":30.2838935852,"rate_score":191.025},
{"name":"黄龙金茂悦","price":48054,"longitude":120.1211853027,"latitude":30.302400589,"rate_score":144.24},
{"name":"紫金公寓","price":38594,"longitude":120.1081924438,"latitude":30.2844562531,"rate_score":222.92},
{"name":"康乐新村","price":37036,"longitude":120.1084976196,"latitude":30.282875061,"rate_score":249.529},
{"name":"金田花园","price":35140,"longitude":120.1051864624,"latitude":30.2842273712,"rate_score":154.747},
{"name":"沁雅花园","price":37761,"longitude":120.1130065918,"latitude":30.2809715271,"rate_score":198.48},
{"name":"中兴公寓","price":39512,"longitude":120.1079788208,"latitude":30.2856235504,"rate_score":196.775},
{"name":"嘉绿景苑","price":39777,"longitude":120.1048736572,"latitude":30.2776298523,"rate_score":155.166},
{"name":"府苑新村","price":44347,"longitude":120.1005935669,"latitude":30.272769928,"rate_score":157.402},
{"name":"西荡苑","price":43303,"longitude":120.1094055176,"latitude":30.2771015167,"rate_score":60.283},
{"name":"丹桂公寓","price":44465,"longitude":120.1146850586,"latitude":30.2808914185,"rate_score":229.965},
{"name":"莲花新村西区","price":42946,"longitude":120.11277771,"latitude":30.2784614563,"rate_score":61.958},
{"name":"紫金庭园","price":40637,"longitude":120.1008911133,"latitude":30.2773761749,"rate_score":63.534},
{"name":"黄龙公寓","price":32570,"longitude":120.1193084717,"latitude":30.279460907,"rate_score":266.946},
{"name":"桂花城别墅","price":105528,"longitude":120.1016693115,"latitude":30.2889442444,"rate_score":80.975},
{"name":"西房秋水苑","price":44089,"longitude":120.1159286499,"latitude":30.2798576355,"rate_score":155.253},
{"name":"科技新村","price":38561,"longitude":120.107421875,"latitude":30.2870044708,"rate_score":271.038},
{"name":"文苑小区","price":35280,"longitude":120.1179275513,"latitude":30.2969169617,"rate_score":26.225},
{"name":"西鉴枫景","price":47477,"longitude":120.1125564575,"latitude":30.2755947113,"rate_score":106.225},
{"name":"颐景园文新","price":43009,"longitude":120.1046600342,"latitude":30.2862377167,"rate_score":201.765},
{"name":"丹枫新村","price":42785,"longitude":120.1065597534,"latitude":30.2832393646,"rate_score":137.78},
{"name":"银桂花园","price":55503,"longitude":120.1000213623,"latitude":30.2813358307,"rate_score":160.34},
{"name":"城市心境","price":46412,"longitude":120.1085357666,"latitude":30.2731781006,"rate_score":132.152},
{"name":"桂花园","price":53766,"longitude":120.1047592163,"latitude":30.2816429138,"rate_score":108.539},
{"name":"香港城","price":40024,"longitude":120.1083374023,"latitude":30.2813625336,"rate_score":157.703},
{"name":"新安嘉苑","price":38300,"longitude":120.1109008789,"latitude":30.274980545,"rate_score":133.197},
{"name":"皇朝城市花园","price":30786,"longitude":120.1016693115,"latitude":30.2802352905,"rate_score":132.35},
{"name":"美都新村","price":40918,"longitude":120.1103210449,"latitude":30.2857322693,"rate_score":132.747},
{"name":"金欣公寓","price":39969,"longitude":120.1072158813,"latitude":30.2812309265,"rate_score":127.044},
{"name":"省规划局宿舍","price":36320,"longitude":120.1068191528,"latitude":30.2813072205,"rate_score":129.202},
{"name":"阳光花园","price":41381,"longitude":120.1020736694,"latitude":30.2813510895,"rate_score":58.166},
{"name":"华星路97号院","price":45433,"longitude":120.12865448,"latitude":30.2854137421,"rate_score":133.401},
{"name":"莲花新村东区","price":37968,"longitude":120.1131439209,"latitude":30.2785606384,"rate_score":135.63},
{"name":"骆家庄东苑","price":19485,"longitude":120.1066589355,"latitude":30.2914924622,"rate_score":138.046},
{"name":"明月公寓","price":33956,"longitude":120.110534668,"latitude":30.2824726105,"rate_score":139.829},
{"name":"世纪西溪别墅","price":55907,"longitude":120.0997619629,"latitude":30.2821674347,"rate_score":51.998},
{"name":"云桂花园","price":49036,"longitude":120.1047134399,"latitude":30.2816047668,"rate_score":108.501},
{"name":"月桂花园","price":46743,"longitude":120.1107711792,"latitude":30.2816009521,"rate_score":101.288},
{"name":"筑品金座","price":36959,"longitude":120.1125640869,"latitude":30.2747364044,"rate_score":134.833},
{"name":"文鼎苑","price":63210,"longitude":120.1014709473,"latitude":30.3020401001,"rate_score":104.395},
{"name":"浙港国际酒店式公寓","price":27723,"longitude":120.1029205322,"latitude":30.3155078888,"rate_score":109.148},
{"name":"西溪诚园致诚苑","price":65865,"longitude":120.0851364136,"latitude":30.2985115051,"rate_score":125.64},
{"name":"禹洲滨之江","price":22010,"longitude":120.1201858521,"latitude":30.1554508209,"rate_score":49.155},
{"name":"浙大新村","price":63122,"longitude":120.1327896118,"latitude":30.2669754028,"rate_score":138.43},
{"name":"东日晴好","price":29324,"longitude":120.096862793,"latitude":30.1422863007,"rate_score":63.825},
{"name":"荷花池头","price":53878,"longitude":120.1660919189,"latitude":30.2473735809,"rate_score":150.523},
{"name":"弥陀寺路小区","price":60372,"longitude":120.1560058594,"latitude":30.2717533112,"rate_score":147.545},
{"name":"西湖公馆公寓","price":23558,"longitude":120.1056518555,"latitude":30.1727046967,"rate_score":55.17},
{"name":"西溪天堂·悦居公寓","price":34410,"longitude":120.0982131958,"latitude":30.2745571136,"rate_score":33.675},
{"name":"云栖蝶谷","price":53043,"longitude":120.1089630127,"latitude":30.1826152802,"rate_score":66.202},
{"name":"青芝坞","price":61574,"longitude":120.1261672974,"latitude":30.2645282745,"rate_score":130.586},
{"name":"马也美上","price":19807,"longitude":120.0872268677,"latitude":30.152671814,"rate_score":106.94},
{"name":"鼎园九礼","price":35624,"longitude":120.0705871582,"latitude":30.24609375,"rate_score":112.322},
{"name":"恒大商业中心","price":40118,"longitude":120.1139068604,"latitude":30.1652679443,"rate_score":125.038},
{"name":"嘉和花园","price":22363,"longitude":120.0435333252,"latitude":30.2253284454,"rate_score":31.046},
{"name":"金沙曲苑","price":34050,"longitude":120.1338424683,"latitude":30.2543125153,"rate_score":58.658},
{"name":"绿野春天叠翠谷","price":22082,"longitude":120.0126419067,"latitude":30.2010326385,"rate_score":20.0},
{"name":"双峰村","price":84633,"longitude":120.1279983521,"latitude":30.2406463623,"rate_score":78.97},
{"name":"四眼井","price":39181,"longitude":120.1423034668,"latitude":30.2217903137,"rate_score":73.025},
{"name":"西湖墅","price":0,"longitude":120.1062774658,"latitude":30.1728687286,"rate_score":25.468},
{"name":"融创河滨之城","price":57790,"longitude":120.0683364868,"latitude":30.3037948608,"rate_score":124.883},
{"name":"西溪蝶园","price":49497,"longitude":120.0699996948,"latitude":30.2947254181,"rate_score":122.545},
{"name":"西溪里","price":47246,"longitude":120.0653610229,"latitude":30.2972297668,"rate_score":112.8},
{"name":"万科西庐","price":54237,"longitude":120.0635910034,"latitude":30.2984809875,"rate_score":116.33},
{"name":"泰禾中央广场公寓","price":31339,"longitude":116.3286743164,"latitude":39.7203903198,"rate_score":25.14},
{"name":"西溪华府","price":44486,"longitude":120.060798645,"latitude":30.2957954407,"rate_score":117.355},
{"name":"龙湖西溪天街","price":32750,"longitude":120.0735626221,"latitude":30.2982025146,"rate_score":27.5},
{"name":"西溪九号公寓","price":23739,"longitude":120.0648651123,"latitude":30.2847042084,"rate_score":53.07},
{"name":"西溪诚园正信苑","price":66874,"longitude":120.0849533081,"latitude":30.2969112396,"rate_score":51.635},
{"name":"西溪诚园守纯苑","price":65855,"longitude":120.0862808228,"latitude":30.2954406738,"rate_score":63.035},
{"name":"西溪融庄","price":40764,"longitude":120.0462112427,"latitude":30.2761592865,"rate_score":96.902},
{"name":"西溪新城市","price":33375,"longitude":120.0649185181,"latitude":30.2851715088,"rate_score":58.338},
{"name":"华策中心公寓","price":24393,"longitude":120.07472229,"latitude":30.3063049316,"rate_score":31.754},
{"name":"西溪诚园知敬苑","price":67069,"longitude":120.0890579224,"latitude":30.2937259674,"rate_score":29.3},
{"name":"香溪","price":42372,"longitude":120.0634765625,"latitude":30.2959194183,"rate_score":35.579},
{"name":"万科坤和玉泉","price":47497,"longitude":120.071723938,"latitude":30.2434558868,"rate_score":120.18},
{"name":"富越香溪排屋","price":37485,"longitude":120.064163208,"latitude":30.2957649231,"rate_score":27.61},
{"name":"西溪诚园公寓","price":72219,"longitude":120.0873260498,"latitude":30.2950363159,"rate_score":63.34},
{"name":"天元西溪锋尚","price":20751,"longitude":120.0977859497,"latitude":30.2809009552,"rate_score":102.789},
{"name":"坤和西溪里别墅","price":49326,"longitude":120.0654830933,"latitude":30.2947387695,"rate_score":138.965},
{"name":"西溪融庄排屋","price":40240,"longitude":120.0503158569,"latitude":30.2816848755,"rate_score":34.728},
{"name":"西溪诚园明礼苑","price":59664,"longitude":120.0889434814,"latitude":30.2953014374,"rate_score":25.25},
{"name":"华元天鹅堡酒店式公寓","price":24440,"longitude":120.111946106,"latitude":30.2697277069,"rate_score":51.97},
{"name":"西溪逸境","price":38168,"longitude":120.030090332,"latitude":30.2796363831,"rate_score":66.045},
{"name":"绿城西溪世纪广场公寓","price":26439,"longitude":120.0780029297,"latitude":30.2991256714,"rate_score":23.835},
{"name":"西溪路小区","price":55058,"longitude":120.1055145264,"latitude":30.2656402588,"rate_score":141.893},
{"name":"西湖家园公寓","price":26085,"longitude":120.0957107544,"latitude":30.2628078461,"rate_score":46.57},
{"name":"和庄","price":37788,"longitude":120.0790328979,"latitude":30.2618541718,"rate_score":30.335},
{"name":"大华新天地","price":31097,"longitude":120.0415802002,"latitude":30.2904148102,"rate_score":89.3},
{"name":"黄龙综合楼","price":50450,"longitude":120.1415100098,"latitude":30.2724685669,"rate_score":112.471},
{"name":"绿城西溪深蓝公寓","price":24742,"longitude":119.988899231,"latitude":30.1454582214,"rate_score":46.725},
{"name":"西溪名园","price":30087,"longitude":120.0634841919,"latitude":30.2589874268,"rate_score":25.345},
{"name":"中交悦西溪别墅","price":41195,"longitude":120.0384292603,"latitude":30.2873439789,"rate_score":45.215},
{"name":"钱江西溪和景别墅","price":49858,"longitude":120.1129379272,"latitude":30.2706413269,"rate_score":137.902},
{"name":"钱江西溪和景","price":31429,"longitude":120.1133575439,"latitude":30.2709064484,"rate_score":27.58},
{"name":"天目山路118号","price":46710,"longitude":120.1159744263,"latitude":30.2753505707,"rate_score":115.486},
{"name":"天目山路116号","price":43434,"longitude":120.1549835205,"latitude":30.2801074982,"rate_score":141.445},
{"name":"药物研究所宿舍","price":25502,"longitude":120.0897369385,"latitude":30.2603263855,"rate_score":159.12},
{"name":"EAC国际公寓","price":60591,"longitude":120.1433029175,"latitude":30.2809505463,"rate_score":99.97},
{"name":"公元大厦","price":57269,"longitude":120.1379089355,"latitude":30.2703666687,"rate_score":88.545},
{"name":"文二新村","price":72168,"longitude":120.1496124268,"latitude":30.2890205383,"rate_score":178.77},
{"name":"中大文锦苑","price":68778,"longitude":120.1508178711,"latitude":30.2857322693,"rate_score":24.59},
{"name":"下宁巷","price":73781,"longitude":120.1486358643,"latitude":30.2878417969,"rate_score":141.06},
{"name":"崇文公寓","price":68657,"longitude":120.1533660889,"latitude":30.286989212,"rate_score":148.72},
{"name":"求智弄小区","price":71847,"longitude":120.1506118774,"latitude":30.2891178131,"rate_score":149.85},
{"name":"求智巷","price":79790,"longitude":120.1500778198,"latitude":30.2895870209,"rate_score":133.788},
{"name":"上宁新村","price":63361,"longitude":120.149848938,"latitude":30.2830867767,"rate_score":144.435},
{"name":"马塍路33号","price":74125,"longitude":120.1534957886,"latitude":30.2867145538,"rate_score":118.261},
{"name":"梅苑阁小区","price":48831,"longitude":120.1500473022,"latitude":30.2939243317,"rate_score":151.485},
{"name":"文二路21号","price":74602,"longitude":120.1521072388,"latitude":30.2897548676,"rate_score":98.27},
{"name":"马塍路11号","price":55180,"longitude":120.1542205811,"latitude":30.2821922302,"rate_score":128.935},
{"name":"文三路103号院","price":43027,"longitude":120.1522903442,"latitude":30.283996582,"rate_score":154.855},
{"name":"马塍路13号","price":0,"longitude":null,"latitude":null,"rate_score":28.934},
{"name":"马塍路37号","price":0,"longitude":null,"latitude":null,"rate_score":35.392},
{"name":"武林巷36号小区","price":0,"longitude":null,"latitude":null,"rate_score":27.864},
{"name":"文二路43号","price":65550,"longitude":120.1513671875,"latitude":30.2893409729,"rate_score":118.581},
{"name":"群升万国天地","price":24647,"longitude":null,"latitude":null,"rate_score":26.602},
{"name":"钱塘ONE公寓","price":22189,"longitude":120.1237792969,"latitude":30.1550502777,"rate_score":99.704},
{"name":"之江九里","price":34072,"longitude":120.1014709473,"latitude":30.1720104218,"rate_score":48.626},
{"name":"嘉里云荷廷","price":35242,"longitude":120.1108093262,"latitude":30.1766395569,"rate_score":34.48},
{"name":"之江之芯","price":23142,"longitude":120.1042404175,"latitude":30.1642398834,"rate_score":31.139},
{"name":"大家之江悦","price":32816,"longitude":120.1033935547,"latitude":30.1670513153,"rate_score":127.021},
{"name":"西湖花园","price":36691,"longitude":120.1140060425,"latitude":30.1880893707,"rate_score":116.91},
{"name":"公元沐桥","price":26384,"longitude":120.1042938232,"latitude":30.172164917,"rate_score":123.325},
{"name":"恒大水晶城","price":34286,"longitude":null,"latitude":null,"rate_score":25.0},
{"name":"九树公寓","price":50000,"longitude":120.1151351929,"latitude":30.188249588,"rate_score":113.141},
{"name":"公元沐桥排屋","price":41896,"longitude":120.1044464111,"latitude":30.1703853607,"rate_score":25.97},
{"name":"之江九里别墅","price":120532,"longitude":120.10105896,"latitude":30.1714839935,"rate_score":74.98},
{"name":"和昌云潮公寓","price":24008,"longitude":120.1145629883,"latitude":30.1779327393,"rate_score":47.89},
{"name":"新帝朗郡","price":26423,"longitude":120.0746994019,"latitude":30.1693973541,"rate_score":49.245},
{"name":"绿城之江1号","price":33827,"longitude":120.0796661377,"latitude":30.1712036133,"rate_score":72.895},
{"name":"金街美地公寓","price":22565,"longitude":120.0858459473,"latitude":30.1525707245,"rate_score":77.421},
{"name":"阳明谷","price":71127,"longitude":120.0921630859,"latitude":30.175447464,"rate_score":55.263},
{"name":"篁外","price":28091,"longitude":120.0683288574,"latitude":30.1495304108,"rate_score":179.21},
{"name":"九溪玫瑰园别墅","price":110793,"longitude":120.1122894287,"latitude":30.1882152557,"rate_score":25.81},
{"name":"中天九溪诚品","price":35499,"longitude":120.1046447754,"latitude":30.1683673859,"rate_score":120.988},
{"name":"禹洲滨天地","price":21263,"longitude":null,"latitude":null,"rate_score":0.0},
{"name":"融科瑷骊山","price":29602,"longitude":120.0713577271,"latitude":30.1484661102,"rate_score":109.535},
{"name":"祥生云溪新语","price":33631,"longitude":120.1029281616,"latitude":30.1693267822,"rate_score":27.94},
{"name":"云溪香山","price":27094,"longitude":120.0793838501,"latitude":30.1554946899,"rate_score":131.205},
{"name":"南都西湖高尔夫别墅","price":56243,"longitude":120.0771102905,"latitude":30.178855896,"rate_score":133.305},
{"name":"贝利云栖中心公寓","price":22500,"longitude":120.1169509888,"latitude":30.186964035,"rate_score":27.345},
{"name":"中天之江诚品","price":34221,"longitude":120.0750961304,"latitude":30.1497592926,"rate_score":112.081},
{"name":"绿城云栖玫瑰园别墅","price":123648,"longitude":120.0813903809,"latitude":30.1746463776,"rate_score":68.925},
{"name":"天阳云筑","price":30604,"longitude":120.0719070435,"latitude":30.1499557495,"rate_score":51.865},
{"name":"赞成岭上花苑","price":26870,"longitude":120.0662612915,"latitude":30.1513290405,"rate_score":36.236},
{"name":"玖珑山","price":28447,"longitude":120.0665817261,"latitude":30.1482830048,"rate_score":52.47},
{"name":"梧桐燕庐","price":31370,"longitude":120.0984191895,"latitude":30.1414604187,"rate_score":146.115},
{"name":"星云公寓loft","price":21511,"longitude":120.1954956055,"latitude":30.3467903137,"rate_score":52.52},
{"name":"篁外山庄","price":30080,"longitude":120.0683670044,"latitude":30.1495456696,"rate_score":185.357},
{"name":"新西湖花园别墅","price":51516,"longitude":120.0782623291,"latitude":30.1788406372,"rate_score":99.975},
{"name":"梦湖山庄公寓","price":25785,"longitude":120.0821456909,"latitude":30.1768951416,"rate_score":125.355},
{"name":"丽晶美庐别墅","price":80225,"longitude":120.1014022827,"latitude":30.177324295,"rate_score":63.587},
{"name":"东方苑","price":41674,"longitude":120.1460342407,"latitude":30.2053833008,"rate_score":112.66},
{"name":"绿城云栖玫瑰园","price":109562,"longitude":120.0833816528,"latitude":30.1753177643,"rate_score":77.495},
{"name":"樱花小筑","price":31111,"longitude":120.0970916748,"latitude":30.3159065247,"rate_score":106.39},
{"name":"云栖蝶谷别墅","price":90692,"longitude":120.1338348389,"latitude":30.1998767853,"rate_score":57.945},
{"name":"云溪印象","price":19019,"longitude":120.0783996582,"latitude":30.1532936096,"rate_score":103.715},
{"name":"枫丹白露","price":33526,"longitude":120.0829696655,"latitude":30.1803131104,"rate_score":47.705},
{"name":"新帝朗郡别墅","price":27655,"longitude":120.0738143921,"latitude":30.1706638336,"rate_score":53.36},
{"name":"梦湖山庄","price":32367,"longitude":120.0872497559,"latitude":30.171333313,"rate_score":107.597},
{"name":"润和山庄","price":41378,"longitude":120.1627044678,"latitude":30.2092037201,"rate_score":90.55},
{"name":"美上商业中心","price":20729,"longitude":120.0878982544,"latitude":30.1528205872,"rate_score":54.182},
{"name":"万美摩登中心公寓","price":19146,"longitude":120.0762329102,"latitude":30.1489810944,"rate_score":57.479},
{"name":"新西湖花园","price":28415,"longitude":120.0782623291,"latitude":30.1788406372,"rate_score":123.239},
{"name":"钱江之江新天地","price":18396,"longitude":120.0947952271,"latitude":30.1371803284,"rate_score":85.72},
{"name":"赞成岭上排屋","price":27807,"longitude":120.0662612915,"latitude":30.1513290405,"rate_score":61.966},
{"name":"景月湾排屋","price":40436,"longitude":120.0895614624,"latitude":30.1743907928,"rate_score":107.819},
{"name":"采荷新村","price":48080,"longitude":120.199432373,"latitude":30.2590026855,"rate_score":190.956},
{"name":"双菱新村","price":47854,"longitude":120.2006149292,"latitude":30.2613945007,"rate_score":174.155},
{"name":"凯旋门","price":61421,"longitude":120.197555542,"latitude":30.2618770599,"rate_score":133.21},
{"name":"采荷玉荷","price":47183,"longitude":120.2060852051,"latitude":30.2611179352,"rate_score":26.78},
{"name":"商教苑","price":47981,"longitude":120.1979522705,"latitude":30.2520923615,"rate_score":32.735},
{"name":"采荷芙蓉","price":49410,"longitude":120.2017745972,"latitude":30.2591934204,"rate_score":159.74},
{"name":"采荷洁莲","price":48194,"longitude":120.2026824951,"latitude":30.2589855194,"rate_score":52.842},
{"name":"紫晶商务城","price":19586,"longitude":120.1980895996,"latitude":30.2644672394,"rate_score":184.975},
{"name":"采荷东区","price":44791,"longitude":120.2102203369,"latitude":30.2605762482,"rate_score":176.865},
{"name":"采荷人家","price":47900,"longitude":120.2135696411,"latitude":30.2615699768,"rate_score":57.003},
{"name":"红菱新村","price":48782,"longitude":120.2067947388,"latitude":30.2621517181,"rate_score":231.962},
{"name":"华家池校区家属宿舍","price":43396,"longitude":120.1988601685,"latitude":30.2736930847,"rate_score":99.555},
{"name":"采荷翠柳","price":48357,"longitude":120.2031478882,"latitude":30.2615013123,"rate_score":31.717},
{"name":"采荷绿萍","price":40269,"longitude":120.2057189941,"latitude":30.2636547089,"rate_score":204.403},
{"name":"天阳凤起","price":54047,"longitude":120.2237243652,"latitude":30.2707386017,"rate_score":132.434},
{"name":"清泰小区","price":47707,"longitude":120.1984939575,"latitude":30.2544307709,"rate_score":39.795},
{"name":"采荷青荷苑","price":47247,"longitude":120.2037811279,"latitude":30.2560577393,"rate_score":55.235},
{"name":"建电新村","price":49470,"longitude":120.1981811523,"latitude":30.2624740601,"rate_score":159.148},
{"name":"采荷紫藕","price":49005,"longitude":120.2036209106,"latitude":30.2627754211,"rate_score":166.803},
{"name":"花园铁路新村","price":48718,"longitude":120.1971893311,"latitude":30.2578735352,"rate_score":61.15},
{"name":"三新家园","price":30039,"longitude":120.2105636597,"latitude":30.2679615021,"rate_score":163.176},
{"name":"静怡花苑","price":42796,"longitude":120.2080841064,"latitude":30.2491664886,"rate_score":133.461},
{"name":"采荷金谷","price":46057,"longitude":120.2027893066,"latitude":30.2592582703,"rate_score":161.035},
{"name":"采荷青莼","price":47338,"longitude":120.2066192627,"latitude":30.2593593597,"rate_score":211.753},
{"name":"新城国际花园","price":53695,"longitude":120.2244796753,"latitude":30.2616462708,"rate_score":98.485},
{"name":"青春都市公寓","price":51632,"longitude":120.2056427002,"latitude":30.2653961182,"rate_score":120.175},
{"name":"采荷路35号","price":48306,"longitude":120.2001037598,"latitude":30.2572898865,"rate_score":62.594},
{"name":"静安花园","price":45603,"longitude":120.2078552246,"latitude":30.249256134,"rate_score":130.195},
{"name":"思安坊","price":36741,"longitude":120.2062149048,"latitude":30.247751236,"rate_score":125.799},
{"name":"采荷小区","price":44685,"longitude":120.2018890381,"latitude":30.2597579956,"rate_score":198.265},
{"name":"居安坊","price":37613,"longitude":120.2076873779,"latitude":30.2464904785,"rate_score":264.21},
{"name":"元丰庆春御府","price":54421,"longitude":120.1990966797,"latitude":30.262960434,"rate_score":138.294},
{"name":"采荷支路小区","price":41470,"longitude":120.205078125,"latitude":30.2552585602,"rate_score":96.934},
{"name":"采荷路17号","price":39971,"longitude":120.2039108276,"latitude":30.2574939728,"rate_score":260.483},
{"name":"采荷路33号","price":59732,"longitude":120.2010498047,"latitude":30.2567405701,"rate_score":68.219},
{"name":"采荷路14号","price":33869,"longitude":120.2035598755,"latitude":30.2579212189,"rate_score":175.251},
{"name":"邮政职工公寓","price":60912,"longitude":120.1960830688,"latitude":30.2571640015,"rate_score":63.782},
{"name":"采荷南苑","price":44716,"longitude":120.2137298584,"latitude":30.2561569214,"rate_score":144.116},
{"name":"采荷嘉业大厦","price":28751,"longitude":120.2142715454,"latitude":30.2622718811,"rate_score":54.742},
{"name":"采荷二区","price":54512,"longitude":120.2046813965,"latitude":30.2628421783,"rate_score":186.026},
{"name":"金色黎明","price":41526,"longitude":120.2290115356,"latitude":30.3132591248,"rate_score":115.446},
{"name":"龙湖金地商置都会风华","price":40523,"longitude":120.2271194458,"latitude":30.3060207367,"rate_score":23.422},
{"name":"滨江德信东方星城","price":41553,"longitude":120.2216644287,"latitude":30.3084087372,"rate_score":53.759},
{"name":"德信东望","price":39182,"longitude":120.2338256836,"latitude":30.2969379425,"rate_score":158.746},
{"name":"东渡酩悦","price":32333,"longitude":120.2250671387,"latitude":30.2988262177,"rate_score":39.276},
{"name":"远洋心里","price":35493,"longitude":120.2536392212,"latitude":30.3127441406,"rate_score":120.965},
{"name":"华润中央车站广场","price":28301,"longitude":120.2219390869,"latitude":30.3001594543,"rate_score":20.0},
{"name":"万科公园大道","price":41798,"longitude":120.2212371826,"latitude":30.3162193298,"rate_score":97.593},
{"name":"德信浙旅东宸","price":41714,"longitude":120.2246170044,"latitude":30.3045825958,"rate_score":162.0},
{"name":"世茂钱塘天誉","price":39992,"longitude":120.217338562,"latitude":30.3115901947,"rate_score":32.036},
{"name":"紫台","price":35298,"longitude":120.2516403198,"latitude":30.3125896454,"rate_score":93.06},
{"name":"天阳尚城国际","price":39361,"longitude":120.2052230835,"latitude":30.3080844879,"rate_score":141.72},
{"name":"天阳文晖","price":41172,"longitude":120.2082290649,"latitude":30.3071193695,"rate_score":167.92},
{"name":"红街天城公寓","price":17687,"longitude":120.2143173218,"latitude":30.2979831696,"rate_score":96.515},
{"name":"中凯东方红街","price":37755,"longitude":120.2130126953,"latitude":30.3003616333,"rate_score":150.455},
{"name":"广宇东港空间","price":32544,"longitude":null,"latitude":null,"rate_score":27.5},
{"name":"梧桐语","price":34452,"longitude":120.2532806396,"latitude":30.3182792664,"rate_score":30.335},
{"name":"草庄","price":40360,"longitude":120.2247238159,"latitude":30.3156013489,"rate_score":153.194},
{"name":"天城府","price":40958,"longitude":120.2033081055,"latitude":30.3039913177,"rate_score":57.0},
{"name":"德信杭州之翼公寓","price":26941,"longitude":120.229675293,"latitude":30.3009643555,"rate_score":33.709},
{"name":"恒祺克拉天玺","price":25810,"longitude":120.2199859619,"latitude":30.3027458191,"rate_score":63.284},
{"name":"三湘印象森林海尚","price":40181,"longitude":120.2336502075,"latitude":30.3025302887,"rate_score":27.5},
{"name":"东方御府","price":50872,"longitude":120.2348327637,"latitude":30.2796554565,"rate_score":104.256},
{"name":"东港嘉苑","price":33534,"longitude":120.2145309448,"latitude":30.3070926666,"rate_score":60.395},
{"name":"交通晓时代","price":35197,"longitude":120.2501907349,"latitude":30.3070449829,"rate_score":172.4},
{"name":"东港嘉苑三区","price":33150,"longitude":120.2185897827,"latitude":30.3044338226,"rate_score":152.332},
{"name":"铁建国际花园","price":35316,"longitude":120.2509460449,"latitude":30.3180847168,"rate_score":58.777},
{"name":"新和嘉苑","price":35165,"longitude":120.2262420654,"latitude":30.2980766296,"rate_score":149.346},
{"name":"淮矿东元府","price":38240,"longitude":120.2334442139,"latitude":30.2934761047,"rate_score":33.285},
{"name":"保利中央公馆","price":50377,"longitude":120.2133560181,"latitude":30.2822036743,"rate_score":33.213},
{"name":"华润置地中央车站广场","price":28325,"longitude":120.2235641479,"latitude":30.2989845276,"rate_score":32.0},
{"name":"越秀亲爱里","price":31693,"longitude":120.2635345459,"latitude":30.3105602264,"rate_score":30.548},
{"name":"杭州港龙城公寓","price":28189,"longitude":120.232673645,"latitude":30.3004016876,"rate_score":55.0},
{"name":"远洋万和四季","price":40141,"longitude":120.2232666016,"latitude":30.3063735962,"rate_score":58.755},
{"name":"招商Ipark","price":34972,"longitude":null,"latitude":null,"rate_score":27.5},
{"name":"天庐苑","price":33394,"longitude":120.2096328735,"latitude":30.3024311066,"rate_score":148.47},
{"name":"浙商国际中心","price":22763,"longitude":null,"latitude":null,"rate_score":25.0},
{"name":"紫玉福邸","price":40329,"longitude":120.2068557739,"latitude":30.3023319244,"rate_score":150.87},
{"name":"东港嘉苑二区","price":33548,"longitude":120.2158584595,"latitude":30.3058757782,"rate_score":124.253},
{"name":"新风丽都","price":34652,"longitude":120.2124404907,"latitude":30.2968025208,"rate_score":70.64},
{"name":"罗兰香谷","price":24308,"longitude":120.2440338135,"latitude":30.3783435822,"rate_score":132.375},
{"name":"北城枫景园","price":25572,"longitude":120.2464904785,"latitude":30.3682994843,"rate_score":114.689},
{"name":"阳光逸城","price":25599,"longitude":120.2450866699,"latitude":30.3553123474,"rate_score":103.425},
{"name":"滨江同协金座公寓","price":27286,"longitude":120.218788147,"latitude":30.3455543518,"rate_score":57.458},
{"name":"上东臻品","price":30919,"longitude":120.2361907959,"latitude":30.3637428284,"rate_score":109.805},
{"name":"丁桥兰苑","price":23175,"longitude":120.2405014038,"latitude":30.3530158997,"rate_score":129.105},
{"name":"新城红郡","price":25138,"longitude":120.235244751,"latitude":30.3772964478,"rate_score":64.348},
{"name":"中兴久睦苑","price":24693,"longitude":120.2414779663,"latitude":30.370634079,"rate_score":99.665},
{"name":"瑞立辰秀嘉园","price":23715,"longitude":120.2487258911,"latitude":30.3613548279,"rate_score":128.125},
{"name":"联合格里","price":29494,"longitude":120.2412719727,"latitude":30.3644981384,"rate_score":152.482},
{"name":"上东名筑","price":31412,"longitude":120.2322387695,"latitude":30.3674201965,"rate_score":108.67},
{"name":"新城湾上风华","price":23706,"longitude":120.2319488525,"latitude":30.3742523193,"rate_score":122.004},
{"name":"名景台","price":31162,"longitude":120.219619751,"latitude":30.3499507904,"rate_score":98.69},
{"name":"云锦城","price":24996,"longitude":120.2368850708,"latitude":30.3777580261,"rate_score":62.847},
{"name":"玺之湾","price":28098,"longitude":120.2349243164,"latitude":30.3516521454,"rate_score":127.984},
{"name":"阳光城翡丽湾","price":29667,"longitude":120.2124328613,"latitude":30.3528137207,"rate_score":121.401},
{"name":"龙湖武林九里","price":32656,"longitude":120.223526001,"latitude":30.3456020355,"rate_score":81.166},
{"name":"长睦邻里人家","price":25618,"longitude":120.2398910522,"latitude":30.3657741547,"rate_score":136.949},
{"name":"郡枫绿园","price":26638,"longitude":120.2262420654,"latitude":30.3478221893,"rate_score":130.242},
{"name":"中豪四季公馆","price":31511,"longitude":120.2434005737,"latitude":30.3575534821,"rate_score":123.145},
{"name":"丁桥颐景园","price":29495,"longitude":120.236541748,"latitude":30.3593406677,"rate_score":142.423},
{"name":"金地格林格林","price":26332,"longitude":120.2466659546,"latitude":30.3773918152,"rate_score":78.336},
{"name":"天阳观筑","price":29261,"longitude":120.2428970337,"latitude":30.3653354645,"rate_score":125.758},
{"name":"上东领地","price":30578,"longitude":120.2333755493,"latitude":30.3626670837,"rate_score":154.239},
{"name":"昆仑天籁","price":31455,"longitude":120.2427597046,"latitude":30.3603496552,"rate_score":143.133},
{"name":"冠宇隽园","price":29240,"longitude":120.2396621704,"latitude":30.3571205139,"rate_score":117.339},
{"name":"北城铭苑","price":28265,"longitude":120.238822937,"latitude":30.3516597748,"rate_score":148.599},
{"name":"置鼎明珠1号","price":21526,"longitude":120.2365036011,"latitude":30.3581733704,"rate_score":155.504},
{"name":"上东城","price":30091,"longitude":120.2352218628,"latitude":30.3663768768,"rate_score":157.061},
{"name":"东承府","price":30581,"longitude":120.2346801758,"latitude":30.3662548065,"rate_score":70.158},
{"name":"丁桥景园","price":23656,"longitude":120.2390975952,"latitude":30.3554973602,"rate_score":182.318},
{"name":"城基后珠农港苑","price":25859,"longitude":120.2449645996,"latitude":30.3620700836,"rate_score":123.135},
{"name":"美都雅苑","price":23100,"longitude":120.2484970093,"latitude":30.3638744354,"rate_score":123.585},
{"name":"丁兰商业中心","price":10989,"longitude":120.2379302979,"latitude":30.3593902588,"rate_score":113.046},
{"name":"华天苑","price":24192,"longitude":120.2514953613,"latitude":30.3693599701,"rate_score":104.302},
{"name":"天阳晴朗","price":33734,"longitude":120.2310333252,"latitude":30.3615379333,"rate_score":121.881},
{"name":"远洋香奈","price":30212,"longitude":120.2254562378,"latitude":30.3502731323,"rate_score":129.556},
{"name":"卓越蔚蓝领秀","price":28466,"longitude":120.2461776733,"latitude":30.3736515045,"rate_score":60.304},
{"name":"广大融城印象","price":28750,"longitude":120.2328643799,"latitude":30.363910675,"rate_score":58.714},
{"name":"丁桥家苑","price":24866,"longitude":120.2389373779,"latitude":30.3552436829,"rate_score":65.385},
{"name":"南肖埠北景西苑","price":40652,"longitude":120.1985168457,"latitude":30.2669811249,"rate_score":162.6},
{"name":"南肖埠庆春苑","price":41866,"longitude":120.1987304688,"latitude":30.2651748657,"rate_score":191.981},
{"name":"南肖埠华家池","price":40743,"longitude":120.1994171143,"latitude":30.2664985657,"rate_score":154.083},
{"name":"金秋花园","price":37018,"longitude":120.2056655884,"latitude":30.270450592,"rate_score":150.294},
{"name":"凯林巷小区","price":39107,"longitude":120.1996917725,"latitude":30.2708721161,"rate_score":123.879},
{"name":"凯旋路小区","price":43983,"longitude":120.1970672607,"latitude":30.2665843964,"rate_score":159.841},
{"name":"广茵大厦","price":18972,"longitude":120.1996917725,"latitude":30.268699646,"rate_score":129.742},
{"name":"紫玉公馆","price":41278,"longitude":120.1971969604,"latitude":30.27551651,"rate_score":34.192},
{"name":"南肖埠庆和苑","price":45130,"longitude":120.2004470825,"latitude":30.2642745972,"rate_score":157.26},
{"name":"农业厅第三住宅区","price":45782,"longitude":120.2025985718,"latitude":30.2710037231,"rate_score":116.574},
{"name":"浙报宿舍","price":44191,"longitude":120.1989517212,"latitude":30.2703151703,"rate_score":146.392},
{"name":"凯旋路174号","price":52064,"longitude":120.1974258423,"latitude":30.2669124603,"rate_score":141.744},
{"name":"庆春东路62号院","price":34450,"longitude":120.2010345459,"latitude":30.2639255524,"rate_score":172.281},
{"name":"龙湖大家九龙仓璟宸府","price":38005,"longitude":120.2387161255,"latitude":30.3133678436,"rate_score":30.0},
{"name":"曙光之城","price":42169,"longitude":120.2140884399,"latitude":30.3099498749,"rate_score":164.715},
{"name":"宋都时间国际公寓","price":20311,"longitude":116.456451416,"latitude":39.9685401917,"rate_score":44.91},
{"name":"玉兰公寓","price":43691,"longitude":120.2073440552,"latitude":30.2977619171,"rate_score":154.078},
{"name":"原筑壹号","price":27173,"longitude":120.2404937744,"latitude":30.3143749237,"rate_score":34.556},
{"name":"浅草名苑","price":31281,"longitude":120.2255325317,"latitude":30.3185424805,"rate_score":137.001},
{"name":"中旅·城仕公馆","price":30937,"longitude":120.222366333,"latitude":30.3536701202,"rate_score":60.769},
{"name":"融创玖樟台","price":35538,"longitude":120.2171783447,"latitude":30.3158435822,"rate_score":113.271},
{"name":"东方丽都花苑","price":41546,"longitude":120.2067642212,"latitude":30.298248291,"rate_score":159.216},
{"name":"原筑壹号公寓","price":25000,"longitude":120.2405776978,"latitude":30.314371109,"rate_score":59.831},
{"name":"大世界五金城","price":11667,"longitude":120.2293319702,"latitude":30.3395366669,"rate_score":86.9},
{"name":"丁兰花苑","price":15167,"longitude":120.2314376831,"latitude":30.3564357758,"rate_score":36.084},
{"name":"赵家花苑","price":27436,"longitude":120.2281799316,"latitude":30.3624038696,"rate_score":4.202},
{"name":"笕桥花苑","price":26897,"longitude":120.2275466919,"latitude":30.3199996948,"rate_score":127.813},
{"name":"天成路武警宿舍","price":32815,"longitude":120.2107315063,"latitude":30.292881012,"rate_score":110.38},
{"name":"万事利公寓","price":41212,"longitude":120.2278900146,"latitude":30.3301925659,"rate_score":123.24},
{"name":"原筑壹号排屋","price":24452,"longitude":120.2394485474,"latitude":30.314239502,"rate_score":27.945},
{"name":"龙湖滟澜山","price":36091,"longitude":120.3331985474,"latitude":30.3186740875,"rate_score":145.605},
{"name":"铭和苑","price":23751,"longitude":120.3396987915,"latitude":30.3243217468,"rate_score":118.675},
{"name":"柠檬郡","price":29076,"longitude":120.3274230957,"latitude":30.3033847809,"rate_score":152.617},
{"name":"晓城天地","price":11964,"longitude":120.3386917114,"latitude":30.3154163361,"rate_score":102.455},
{"name":"德信早城","price":37531,"longitude":120.3362045288,"latitude":30.3200778961,"rate_score":132.444},
{"name":"金沙湖1号公寓","price":21841,"longitude":120.3365325928,"latitude":30.3146057129,"rate_score":140.95},
{"name":"铭都雅苑","price":30056,"longitude":120.3413467407,"latitude":30.3128204346,"rate_score":74.719},
{"name":"四季广场","price":16087,"longitude":120.3446655273,"latitude":30.3240451813,"rate_score":117.26},
{"name":"金沙阳光","price":26477,"longitude":120.340713501,"latitude":30.3078784943,"rate_score":305.375},
{"name":"中豪七格","price":18848,"longitude":120.3290939331,"latitude":30.3050174713,"rate_score":140.105},
{"name":"东岸嘉园","price":29458,"longitude":120.3363418579,"latitude":30.3084697723,"rate_score":172.255},
{"name":"名城湖左岸","price":40926,"longitude":120.3281021118,"latitude":30.3189411163,"rate_score":28.37},
{"name":"御观邸","price":41986,"longitude":120.3371505737,"latitude":30.3139400482,"rate_score":91.93},
{"name":"德信中外公寓","price":36733,"longitude":120.3371582031,"latitude":30.3194046021,"rate_score":117.471},
{"name":"松合幸福雅苑","price":27750,"longitude":120.3223114014,"latitude":30.3212776184,"rate_score":128.31},
{"name":"泰美国际大厦","price":20274,"longitude":null,"latitude":null,"rate_score":22.5},
{"name":"中沙金座","price":11736,"longitude":120.3371276855,"latitude":30.3121948242,"rate_score":98.093},
{"name":"锦湖家园","price":28978,"longitude":120.3333206177,"latitude":30.3124065399,"rate_score":129.98},
{"name":"金沙国际公寓","price":15836,"longitude":120.3253707886,"latitude":30.3250751495,"rate_score":131.315},
{"name":"东方铭楼","price":16905,"longitude":120.3391189575,"latitude":30.3143634796,"rate_score":182.008},
{"name":"湖景居","price":29757,"longitude":120.3220443726,"latitude":30.3098506927,"rate_score":59.399},
{"name":"龙湖滟澜星座公寓","price":18959,"longitude":120.3327941895,"latitude":30.3147373199,"rate_score":47.525},
{"name":"东沙铭城","price":12025,"longitude":120.3404312134,"latitude":30.3102169037,"rate_score":62.481},
{"name":"智格豪城","price":11797,"longitude":120.3361663818,"latitude":30.3013839722,"rate_score":102.186},
{"name":"东部国际商务中心公寓","price":15883,"longitude":120.3299865723,"latitude":30.3161792755,"rate_score":109.684},
{"name":"头格江景家园一区","price":25607,"longitude":120.3123855591,"latitude":30.3064365387,"rate_score":34.796},
{"name":"财通中心","price":18837,"longitude":120.3412704468,"latitude":30.3150653839,"rate_score":164.23},
{"name":"新沙家园","price":26355,"longitude":120.3397903442,"latitude":30.3225860596,"rate_score":88.246},
{"name":"幸福家园","price":19416,"longitude":120.3222198486,"latitude":30.3040752411,"rate_score":58.494},
{"name":"新元金沙城","price":27250,"longitude":120.340057373,"latitude":30.3201389313,"rate_score":93.975},
{"name":"松合幸福里","price":20373,"longitude":120.3235778809,"latitude":30.3243331909,"rate_score":184.273},
{"name":"高沙百盛苑","price":25028,"longitude":120.3419342041,"latitude":30.3251571655,"rate_score":114.028},
{"name":"金沙家园","price":28560,"longitude":120.3401031494,"latitude":30.3226413727,"rate_score":84.243},
{"name":"新怡家园","price":23041,"longitude":120.3334732056,"latitude":30.3026790619,"rate_score":24.47},
{"name":"北苑大厦","price":18412,"longitude":120.3392486572,"latitude":30.3115653992,"rate_score":72.671},
{"name":"东海橙对","price":22651,"longitude":120.3264465332,"latitude":30.3031692505,"rate_score":141.039},
{"name":"东海金沙T台","price":12460,"longitude":120.327796936,"latitude":30.3017139435,"rate_score":135.942},
{"name":"华沙公寓","price":18415,"longitude":120.3385925293,"latitude":30.3078289032,"rate_score":279.075},
{"name":"松合时代商城公寓","price":38493,"longitude":120.3192138672,"latitude":30.3207626343,"rate_score":138.57},
{"name":"湾南德盛东苑","price":23704,"longitude":null,"latitude":null,"rate_score":27.5},
{"name":"新城时代广场","price":23181,"longitude":120.213684082,"latitude":30.2699298859,"rate_score":122.915},
{"name":"景芳三区","price":38576,"longitude":120.2106552124,"latitude":30.2758464813,"rate_score":229.41},
{"name":"景芳六区","price":38445,"longitude":120.2142028809,"latitude":30.2774448395,"rate_score":163.813},
{"name":"景芳五区","price":37621,"longitude":120.2186584473,"latitude":30.2746658325,"rate_score":190.99},
{"name":"景芳四区","price":38073,"longitude":120.2130813599,"latitude":30.2781505585,"rate_score":56.889},
{"name":"中央公馆","price":49358,"longitude":120.2133560181,"latitude":30.2821750641,"rate_score":180.02},
{"name":"景芳二区","price":40132,"longitude":120.2091674805,"latitude":30.2755184174,"rate_score":209.88},
{"name":"景芳一区","price":39050,"longitude":120.2122268677,"latitude":30.273147583,"rate_score":154.029},
{"name":"景芳新五区","price":39069,"longitude":120.2157363892,"latitude":30.2755947113,"rate_score":204.949},
{"name":"景芳水湘苑","price":37229,"longitude":120.217956543,"latitude":30.2774181366,"rate_score":148.091},
{"name":"东润枫华","price":51731,"longitude":120.2242507935,"latitude":30.2771492004,"rate_score":160.079},
{"name":"景芳东区","price":38241,"longitude":120.2212677002,"latitude":30.2746562958,"rate_score":137.39},
{"name":"中豪湘座","price":26642,"longitude":120.2192611694,"latitude":30.280134201,"rate_score":171.64},
{"name":"景苑公寓","price":36539,"longitude":120.21459198,"latitude":30.2757492065,"rate_score":155.8},
{"name":"广景苑","price":47487,"longitude":120.2116622925,"latitude":30.2720088959,"rate_score":122.58},
{"name":"东城印象","price":52273,"longitude":120.2147979736,"latitude":30.2791748047,"rate_score":125.55},
{"name":"水湘人家","price":33185,"longitude":120.2217025757,"latitude":30.2804718018,"rate_score":127.25},
{"name":"省水利厅宿舍","price":43922,"longitude":120.204826355,"latitude":30.2718086243,"rate_score":145.115},
{"name":"景芳新二区","price":51303,"longitude":120.2110137939,"latitude":30.2753124237,"rate_score":171.145},
{"name":"秋涛北路小区","price":38590,"longitude":120.2066574097,"latitude":30.2772808075,"rate_score":144.804},
{"name":"三叉社区","price":44985,"longitude":120.2063522339,"latitude":30.2710361481,"rate_score":142.455},
{"name":"三叉新村二区","price":38922,"longitude":120.2083129883,"latitude":30.2684955597,"rate_score":144.284},
{"name":"水湘公寓","price":32713,"longitude":120.2206954956,"latitude":30.280002594,"rate_score":59.485},
{"name":"五福新村","price":32805,"longitude":120.2135314941,"latitude":30.2776870728,"rate_score":168.876},
{"name":"五福二苑","price":32807,"longitude":120.2209396362,"latitude":30.2679786682,"rate_score":115.681},
{"name":"五福一苑","price":32828,"longitude":120.2223815918,"latitude":30.2676296234,"rate_score":278.922},
{"name":"新塘路小区","price":32815,"longitude":120.2141113281,"latitude":30.2772350311,"rate_score":59.638},
{"name":"新塘家园东区","price":36446,"longitude":120.2199020386,"latitude":30.2818183899,"rate_score":103.871},
{"name":"新塘家园西区","price":46846,"longitude":120.2162017822,"latitude":30.280172348,"rate_score":132.252},
{"name":"璞玉公馆","price":22356,"longitude":120.2883453369,"latitude":30.3224563599,"rate_score":55.024},
{"name":"相江公寓","price":32107,"longitude":120.2923126221,"latitude":30.3039321899,"rate_score":115.544},
{"name":"悦麒美寓","price":34913,"longitude":120.2854309082,"latitude":30.3022842407,"rate_score":162.835},
{"name":"泊林印象","price":32672,"longitude":120.2930450439,"latitude":30.3125782013,"rate_score":131.744},
{"name":"多立方","price":30345,"longitude":120.2726135254,"latitude":30.3272628784,"rate_score":49.966},
{"name":"阳光国际","price":32509,"longitude":120.2805938721,"latitude":30.3013057709,"rate_score":28.72},
{"name":"招商雍和府","price":34302,"longitude":120.2549285889,"latitude":30.3059177399,"rate_score":98.502},
{"name":"鑫运时代金座","price":20869,"longitude":120.2790145874,"latitude":30.3139591217,"rate_score":123.383},
{"name":"丽江公寓","price":36630,"longitude":120.2880935669,"latitude":30.3036384583,"rate_score":188.593},
{"name":"金雅苑","price":26512,"longitude":120.2885971069,"latitude":30.3131732941,"rate_score":78.89},
{"name":"蓝桥名苑","price":24091,"longitude":120.2833404541,"latitude":30.3095645905,"rate_score":164.405},
{"name":"新江花园","price":24671,"longitude":120.279548645,"latitude":30.3096656799,"rate_score":178.0},
{"name":"滨江铂金海岸","price":34854,"longitude":120.2899703979,"latitude":30.3019313812,"rate_score":32.498},
{"name":"罗兰春天","price":29795,"longitude":120.27709198,"latitude":30.3322544098,"rate_score":108.005},
{"name":"九润公寓","price":30225,"longitude":120.2752685547,"latitude":30.3315792084,"rate_score":128.185},
{"name":"魅力之城","price":29807,"longitude":120.2634811401,"latitude":30.3261795044,"rate_score":223.25},
{"name":"泊林公寓","price":31501,"longitude":120.2902297974,"latitude":30.3086452484,"rate_score":147.75},
{"name":"招商雍华府","price":36424,"longitude":120.2564468384,"latitude":30.3090934753,"rate_score":78.45},
{"name":"左邻右舍","price":29610,"longitude":120.2886428833,"latitude":30.3108520508,"rate_score":231.555},
{"name":"海棠公寓","price":31808,"longitude":120.2680053711,"latitude":30.3238811493,"rate_score":186.059},
{"name":"红苹果","price":26625,"longitude":120.2909317017,"latitude":30.3084144592,"rate_score":224.301},
{"name":"世茂东壹号","price":33167,"longitude":120.2534484863,"latitude":30.3081130981,"rate_score":63.749},
{"name":"天阳九筑","price":33562,"longitude":120.2656402588,"latitude":30.3281288147,"rate_score":155.32},
{"name":"金地玖峯汇","price":30962,"longitude":120.2779541016,"latitude":30.3270740509,"rate_score":30.0},
{"name":"九月庭院","price":27127,"longitude":120.2931900024,"latitude":30.3099346161,"rate_score":166.254},
{"name":"昆盛肖邦","price":28118,"longitude":120.2786407471,"latitude":30.3302154541,"rate_score":61.82},
{"name":"圣奥领寓","price":31425,"longitude":120.2872695923,"latitude":30.3089981079,"rate_score":168.106},
{"name":"九洲芳园","price":29661,"longitude":120.2893981934,"latitude":30.3098049164,"rate_score":188.307},
{"name":"香滨湾花园","price":30163,"longitude":120.2751846313,"latitude":30.315820694,"rate_score":191.49},
{"name":"地铁东城广场","price":19777,"longitude":120.2846755981,"latitude":30.3165378571,"rate_score":61.612},
{"name":"海景城","price":26127,"longitude":120.2901382446,"latitude":30.3044681549,"rate_score":59.925},
{"name":"蓝桥景苑","price":24672,"longitude":120.285697937,"latitude":30.3145046234,"rate_score":63.204},
{"name":"圆梦园","price":34077,"longitude":120.2791748047,"latitude":30.298822403,"rate_score":69.391},
{"name":"汇盛德堡","price":29722,"longitude":120.2662811279,"latitude":30.3194313049,"rate_score":36.489},
{"name":"圆梦园别墅","price":34841,"longitude":120.2794418335,"latitude":30.2997703552,"rate_score":60.215},
{"name":"圆梦园公寓","price":31560,"longitude":120.2788772583,"latitude":30.2999134064,"rate_score":32.371},
{"name":"东都公寓","price":25551,"longitude":120.2718353271,"latitude":30.3084583282,"rate_score":60.16},
{"name":"东大门公寓","price":20815,"longitude":120.2903366089,"latitude":30.3207855225,"rate_score":45.348},
{"name":"风林公寓","price":27304,"longitude":120.2704620361,"latitude":30.3078670502,"rate_score":63.116},
{"name":"阳光景台","price":27003,"longitude":120.2783203125,"latitude":30.3036079407,"rate_score":53.675},
{"name":"凯旋新村","price":48057,"longitude":120.1959686279,"latitude":30.2588310242,"rate_score":63.667},
{"name":"金牛坊","price":46271,"longitude":120.196144104,"latitude":30.2611293793,"rate_score":54.905},
{"name":"新安铭苑","price":37081,"longitude":120.1952896118,"latitude":30.2874622345,"rate_score":31.065},
{"name":"采荷紫园","price":51193,"longitude":120.1963424683,"latitude":30.2591323853,"rate_score":54.52},
{"name":"凯旋路34号","price":46276,"longitude":120.1980438232,"latitude":30.2680244446,"rate_score":39.019},
{"name":"红树林花园","price":38553,"longitude":120.1958236694,"latitude":30.2888889313,"rate_score":61.523},
{"name":"汇鑫枫景苑","price":46347,"longitude":120.2083435059,"latitude":30.2669811249,"rate_score":38.478},
{"name":"人民社区","price":47583,"longitude":120.1966629028,"latitude":30.259344101,"rate_score":61.652},
{"name":"华景公寓","price":43066,"longitude":120.1966629028,"latitude":30.2707290649,"rate_score":36.875},
{"name":"凯旋路104号","price":53046,"longitude":120.1970367432,"latitude":30.259305954,"rate_score":61.48},
{"name":"凯旋路110号","price":50540,"longitude":120.1973800659,"latitude":30.2602462769,"rate_score":29.995},
{"name":"华景北苑","price":47093,"longitude":120.1967544556,"latitude":30.2701892853,"rate_score":45.046},
{"name":"华景南苑","price":45163,"longitude":120.1966781616,"latitude":30.2677288055,"rate_score":38.905},
{"name":"景秋公寓","price":44981,"longitude":120.2051086426,"latitude":30.2700195312,"rate_score":84.319},
{"name":"金兰池社区","price":45847,"longitude":120.1992874146,"latitude":30.2671966553,"rate_score":31.19},
{"name":"健风大厦","price":47040,"longitude":120.2075119019,"latitude":30.260263443,"rate_score":53.995},
{"name":"凯旋公寓","price":52338,"longitude":120.1966094971,"latitude":30.2547569275,"rate_score":35.655},
{"name":"凯景公寓","price":46452,"longitude":120.1948165894,"latitude":30.2515964508,"rate_score":62.816},
{"name":"龙生凯旋花园","price":47563,"longitude":120.1975250244,"latitude":30.2660217285,"rate_score":34.415},
{"name":"农药厂宿舍","price":41089,"longitude":120.2004928589,"latitude":30.2900371552,"rate_score":27.365},
{"name":"庆春门社区","price":51316,"longitude":120.210609436,"latitude":30.2734127045,"rate_score":64.892},
{"name":"人民新村","price":52625,"longitude":120.1968307495,"latitude":30.2599697113,"rate_score":37.335},
{"name":"宋都梅苑人家","price":46317,"longitude":120.1960144043,"latitude":30.2568016052,"rate_score":75.596},
{"name":"商教社区","price":62195,"longitude":120.197555542,"latitude":30.2528114319,"rate_score":39.97},
{"name":"双菱路179号","price":62214,"longitude":120.2019424438,"latitude":30.2682590485,"rate_score":74.009},
{"name":"浙江交运大厦","price":34454,"longitude":120.2071914673,"latitude":30.2786769867,"rate_score":35.93},
{"name":"滨江华家池","price":48361,"longitude":120.1992034912,"latitude":30.2797012329,"rate_score":50.92},
{"name":"南肖埠小区","price":39999,"longitude":120.2013397217,"latitude":30.2651767731,"rate_score":34.921},
{"name":"南肖埠御景苑","price":53991,"longitude":120.2042999268,"latitude":30.2645797729,"rate_score":45.37},
{"name":"南肖埠景和苑","price":42695,"longitude":120.2057189941,"latitude":30.2660446167,"rate_score":31.405},
{"name":"新城市广场","price":19004,"longitude":120.2062835693,"latitude":30.2675685883,"rate_score":27.71},
{"name":"南肖埠文景苑","price":45978,"longitude":120.2013320923,"latitude":30.2698020935,"rate_score":55.781},
{"name":"南肖埠北景东苑","price":37267,"longitude":120.2051849365,"latitude":30.2687168121,"rate_score":25.005},
{"name":"南肖埠二小区","price":46452,"longitude":120.205368042,"latitude":30.2639827728,"rate_score":57.376},
{"name":"阳光城普升","price":33306,"longitude":120.2515792847,"latitude":30.31681633,"rate_score":25.825},
{"name":"万科中央公园","price":39736,"longitude":120.2341003418,"latitude":30.3004417419,"rate_score":56.313},
{"name":"东亚新干线公寓","price":25714,"longitude":120.2274703979,"latitude":30.3059997559,"rate_score":25.03},
{"name":"三花国际公寓","price":29140,"longitude":null,"latitude":null,"rate_score":46.97},
{"name":"新中宇维萨","price":42753,"longitude":120.2325515747,"latitude":30.298538208,"rate_score":28.993},
{"name":"华家竹园","price":33143,"longitude":120.2517547607,"latitude":30.2978305817,"rate_score":45.3},
{"name":"普福公寓","price":26972,"longitude":120.2547607422,"latitude":30.3166618347,"rate_score":34.388},
{"name":"五堰庙","price":29982,"longitude":120.2559814453,"latitude":30.2990608215,"rate_score":50.755},
{"name":"兴隆二区","price":32807,"longitude":120.2381362915,"latitude":30.2974910736,"rate_score":33.61},
{"name":"云峰二区","price":32815,"longitude":120.2349777222,"latitude":30.2878131866,"rate_score":61.34},
{"name":"云峰一区","price":32705,"longitude":120.2313232422,"latitude":30.2821979523,"rate_score":36.563},
{"name":"云峰三区","price":34281,"longitude":120.2375717163,"latitude":30.2851333618,"rate_score":54.055},
{"name":"云峰家园","price":36089,"longitude":120.2321472168,"latitude":30.2861595154,"rate_score":31.683},
{"name":"云河家园","price":39381,"longitude":120.2249679565,"latitude":30.2848033905,"rate_score":57.115},
{"name":"章家坝东区","price":39388,"longitude":120.24243927,"latitude":30.4893093109,"rate_score":27.835},
{"name":"中远小区","price":32815,"longitude":120.2141113281,"latitude":30.2772350311,"rate_score":47.39},
{"name":"绿城留香园","price":42017,"longitude":120.2380065918,"latitude":30.2784061432,"rate_score":25.84},
{"name":"万象城悦玺","price":42653,"longitude":120.2205505371,"latitude":30.2595062256,"rate_score":48.385},
{"name":"东方君悦","price":34389,"longitude":120.2266616821,"latitude":30.2570152283,"rate_score":24.36},
{"name":"金基晓庐","price":54726,"longitude":120.2261428833,"latitude":30.2640838623,"rate_score":48.52},
{"name":"融创大家侯潮府","price":68628,"longitude":120.1911315918,"latitude":30.2309875488,"rate_score":32.825},
{"name":"东方润园","price":65867,"longitude":120.2289657593,"latitude":30.2601490021,"rate_score":49.185},
{"name":"中企御品湾","price":38323,"longitude":120.2238464355,"latitude":30.2858467102,"rate_score":28.91},
{"name":"万象城悦府","price":60338,"longitude":120.2237701416,"latitude":30.2591819763,"rate_score":44.87},
{"name":"大家钱塘府","price":55750,"longitude":120.224647522,"latitude":30.2776317596,"rate_score":25.605},
{"name":"盛世钱塘","price":52765,"longitude":120.2292098999,"latitude":30.2647094727,"rate_score":51.18},
{"name":"城市之星","price":61178,"longitude":120.2113265991,"latitude":30.2467727661,"rate_score":26.535},
{"name":"德信大家钱江府","price":40821,"longitude":120.2303466797,"latitude":30.2888011932,"rate_score":51.135},
{"name":"杭州来福士广场公寓","price":34808,"longitude":120.2195892334,"latitude":30.2547664642,"rate_score":26.03},
{"name":"御道路一号","price":50791,"longitude":120.2406845093,"latitude":30.2757396698,"rate_score":54.47},
{"name":"日信国际","price":39108,"longitude":120.2016677856,"latitude":30.2401332855,"rate_score":28.725},
{"name":"向江来时代中心公寓","price":31553,"longitude":120.2272109985,"latitude":30.2849140167,"rate_score":53.18},
{"name":"百大绿城","price":33085,"longitude":120.2103729248,"latitude":30.2657470703,"rate_score":27.085},
{"name":"城市之星(50年)","price":45186,"longitude":120.2099456787,"latitude":30.2461967468,"rate_score":27.85},
{"name":"世包国际中心公寓","price":38952,"longitude":120.2129974365,"latitude":30.2430496216,"rate_score":49.07},
{"name":"万科大都会79号","price":70803,"longitude":120.236656189,"latitude":30.272687912,"rate_score":31.89},
{"name":"和谐嘉园","price":45001,"longitude":120.2182006836,"latitude":30.260351181,"rate_score":26.755},
{"name":"钱塘航空大厦","price":26240,"longitude":120.2158203125,"latitude":30.2430591583,"rate_score":54.135},
{"name":"水岸帝景","price":47507,"longitude":120.2305450439,"latitude":30.2616615295,"rate_score":27.61},
{"name":"新城国际","price":53454,"longitude":120.2230682373,"latitude":30.2622928619,"rate_score":55.88},
{"name":"钱江国际时代广场","price":24166,"longitude":120.2120742798,"latitude":30.2457027435,"rate_score":23.965},
{"name":"钱江三苑","price":48659,"longitude":120.2210693359,"latitude":30.2645778656,"rate_score":59.13},
{"name":"蔚蓝公寓","price":56178,"longitude":120.2106552124,"latitude":30.2702083588,"rate_score":25.555},
{"name":"钱江六苑","price":54423,"longitude":120.2169265747,"latitude":30.2665100098,"rate_score":58.185},
{"name":"金隅中铁诺德都会森林","price":54170,"longitude":120.2166824341,"latitude":30.2840938568,"rate_score":8.638},
{"name":"杭州高德置地广场","price":32859,"longitude":null,"latitude":null,"rate_score":30.0},
{"name":"钱江七苑","price":43526,"longitude":120.2167358398,"latitude":30.2678985596,"rate_score":33.284},
{"name":"融创涌清府","price":36110,"longitude":120.2249145508,"latitude":30.2823047638,"rate_score":48.805},
{"name":"万银国际","price":29000,"longitude":120.2251663208,"latitude":30.257768631,"rate_score":33.747},
{"name":"常青公寓","price":31611,"longitude":120.2111206055,"latitude":30.2519054413,"rate_score":22.19},
{"name":"钱江四苑","price":46088,"longitude":120.2199249268,"latitude":30.2658958435,"rate_score":59.932},
{"name":"泛海国际","price":45438,"longitude":120.2175827026,"latitude":30.2467403412,"rate_score":29.92},
{"name":"海运都会钱塘","price":43478,"longitude":120.1837768555,"latitude":30.2191009521,"rate_score":67.49},
{"name":"钱江商务广场","price":37494,"longitude":120.2169342041,"latitude":30.2427520752,"rate_score":30.94},
{"name":"宋都天润","price":37472,"longitude":120.2805938721,"latitude":30.3013076782,"rate_score":67.655},
{"name":"UDC时代大厦公寓","price":45253,"longitude":120.2243652344,"latitude":30.2501430511,"rate_score":26.54},
{"name":"运新花苑","price":50171,"longitude":120.2316665649,"latitude":30.2789707184,"rate_score":27.085},
{"name":"三堡东苑","price":25433,"longitude":120.2289733887,"latitude":30.2774200439,"rate_score":47.785},
{"name":"三堡南苑","price":32815,"longitude":120.2259140015,"latitude":30.2719993591,"rate_score":38.514},
{"name":"三堡社区","price":32815,"longitude":120.2246856689,"latitude":30.2717647552,"rate_score":47.54},
{"name":"三堡北苑","price":32831,"longitude":120.2231674194,"latitude":30.2743244171,"rate_score":35.524},
{"name":"三堡家园","price":32826,"longitude":120.2244796753,"latitude":30.2691555023,"rate_score":51.41},
{"name":"三里亭苑三区","price":33172,"longitude":120.1956939697,"latitude":30.2989463806,"rate_score":38.432},
{"name":"三里家园三区","price":31165,"longitude":120.1989059448,"latitude":30.3033084869,"rate_score":47.35},
{"name":"三里亭四区","price":33595,"longitude":120.1957550049,"latitude":30.3012752533,"rate_score":27.95},
{"name":"三里新城兰苑","price":33988,"longitude":120.1947784424,"latitude":30.2953834534,"rate_score":51.066},
{"name":"首开德胜上郡","price":34350,"longitude":120.1977615356,"latitude":30.3137245178,"rate_score":25.61},
{"name":"锦润公寓","price":40353,"longitude":120.2067260742,"latitude":30.3066940308,"rate_score":55.43},
{"name":"三里亭二区","price":33303,"longitude":120.2002410889,"latitude":30.3014259338,"rate_score":28.94},
{"name":"三里家园一区","price":33872,"longitude":120.1958694458,"latitude":30.3065071106,"rate_score":54.505},
{"name":"蓝天城市花园","price":35073,"longitude":120.1961593628,"latitude":30.2908153534,"rate_score":27.005},
{"name":"三里新城桂苑","price":33020,"longitude":120.1989212036,"latitude":30.2956409454,"rate_score":51.285},
{"name":"三里亭苑一区","price":33787,"longitude":120.1975631714,"latitude":30.2980918884,"rate_score":29.845},
{"name":"三里家园二区","price":31859,"longitude":120.1951141357,"latitude":30.3035526276,"rate_score":49.405},
{"name":"神州白云大厦","price":15775,"longitude":120.1959915161,"latitude":30.2901287079,"rate_score":26.95},
{"name":"三里新城荷苑","price":34374,"longitude":120.1941757202,"latitude":30.2940826416,"rate_score":124.275},
{"name":"三里家园","price":34005,"longitude":120.1957244873,"latitude":30.3031005859,"rate_score":106.99},
{"name":"广宇水岸雅苑","price":32748,"longitude":120.1969070435,"latitude":30.3042850494,"rate_score":130.92},
{"name":"蓝天公寓","price":42791,"longitude":120.1953430176,"latitude":30.2928409576,"rate_score":143.8},
{"name":"三里新城","price":37069,"longitude":120.1962890625,"latitude":30.2964439392,"rate_score":302.78},
{"name":"广利佳苑","price":31920,"longitude":120.1982192993,"latitude":30.3016490936,"rate_score":93.51},
{"name":"三里新城橘苑","price":32991,"longitude":120.201210022,"latitude":30.2980327606,"rate_score":148.665},
{"name":"机场路一巷小区","price":31454,"longitude":120.1988067627,"latitude":30.2930469513,"rate_score":127.045},
{"name":"三里新城竹苑","price":32275,"longitude":120.1970596313,"latitude":30.297580719,"rate_score":112.4},
{"name":"天城铭苑","price":32078,"longitude":120.1918792725,"latitude":30.28723526,"rate_score":96.59},
{"name":"百合公寓","price":28898,"longitude":120.2011566162,"latitude":30.3020267487,"rate_score":132.575},
{"name":"钱塘沁园","price":34790,"longitude":120.1997146606,"latitude":30.2939014435,"rate_score":113.975},
{"name":"三里新城柳苑","price":28834,"longitude":120.1999511719,"latitude":30.2970046997,"rate_score":128.555},
{"name":"杭州大润城","price":22466,"longitude":120.2004013062,"latitude":30.2629089355,"rate_score":63.33},
{"name":"三里亭小区","price":35498,"longitude":120.1973800659,"latitude":30.3003311157,"rate_score":157.906},
{"name":"三里新城梅苑","price":33557,"longitude":120.2012405396,"latitude":30.2961578369,"rate_score":98.05},
{"name":"佰富时代中心公寓","price":15956,"longitude":120.2052383423,"latitude":30.2975978851,"rate_score":138.799},
{"name":"四海花城","price":46830,"longitude":120.2072677612,"latitude":30.2692832947,"rate_score":75.705},
{"name":"三里亭工农路小区","price":39406,"longitude":120.199546814,"latitude":30.2982845306,"rate_score":150.73},
{"name":"三里新城东升苑","price":38987,"longitude":120.1971817017,"latitude":30.2951126099,"rate_score":38.649},
{"name":"三里亭东苑","price":39110,"longitude":120.2050857544,"latitude":30.2999763489,"rate_score":255.93},
{"name":"夕照新村","price":48442,"longitude":120.2015609741,"latitude":30.2508277893,"rate_score":209.735},
{"name":"凯旋苑","price":48162,"longitude":120.1993560791,"latitude":30.2555198669,"rate_score":63.11},
{"name":"观音塘小区","price":41990,"longitude":120.21068573,"latitude":30.2505149841,"rate_score":141.052},
{"name":"茶厂宿舍","price":59736,"longitude":120.2006759644,"latitude":30.2541122437,"rate_score":63.935},
{"name":"三叉花苑","price":55914,"longitude":120.2163848877,"latitude":30.2646827698,"rate_score":134.094},
{"name":"四季星座","price":46830,"longitude":120.1999130249,"latitude":30.2501354218,"rate_score":125.225},
{"name":"塘苗新村","price":39961,"longitude":120.2057647705,"latitude":30.2560520172,"rate_score":88.711},
{"name":"原筑悦庄","price":20899,"longitude":120.2415008545,"latitude":30.3135757446,"rate_score":97.74},
{"name":"中豪五星国际","price":26455,"longitude":null,"latitude":null,"rate_score":36.5},
{"name":"五堡三区","price":32815,"longitude":120.240852356,"latitude":30.292098999,"rate_score":94.05},
{"name":"五堡一区","price":32815,"longitude":120.2478256226,"latitude":30.2873516083,"rate_score":169.804},
{"name":"五堡二区","price":32815,"longitude":120.2463989258,"latitude":30.2837772369,"rate_score":124.92},
{"name":"五堡四区","price":32815,"longitude":120.2448120117,"latitude":30.2876186371,"rate_score":161.328},
{"name":"五福亭一区","price":31215,"longitude":120.2532806396,"latitude":30.2895431519,"rate_score":117.495},
{"name":"五福亭二区","price":25991,"longitude":120.2522201538,"latitude":30.287727356,"rate_score":54.505},
{"name":"四季风景","price":25957,"longitude":120.3534088135,"latitude":30.3088607788,"rate_score":165.36},