name,price,longitude,latitude,url,stage
西湖,42791,120.13623809814453,30.26581573486328,//fangjia.fang.com/zoushi/c0hz/a0151/,1
北山,56491,120.15460968017578000000,30.27588081359863300000,//fangjia.fang.com/zoushi/c0hz/a0151-b02345/,2
松木场河东,57287,120.1551513671875,30.2763614654541,//fangjia.fang.com/process/hz/2010409706.htm,3
胜利新村,54222,120.15888977050781,30.276514053344727,//fangjia.fang.com/process/hz/2010575022.htm,3
金祝新村,56266,120.1574935913086,30.27549171447754,//fangjia.fang.com/process/hz/2010255024.htm,3
友谊新村,52891,120.15057373046875,30.273935317993164,//fangjia.fang.com/process/hz/2010250304.htm,3
松木场河西,54452,120.15357208251953,30.27535629272461,//fangjia.fang.com/process/hz/2010409704.htm,3
曙光路小区,55203,120.13704681396484,30.263458251953125,//fangjia.fang.com/process/hz/2010761798.htm,3
桃园新村,58920,120.15312194824219,30.272491455078125,//fangjia.fang.com/process/hz/2010515252.htm,3
铁路新村西湖,51065,119.05252838134766,29.599885940551758,//fangjia.fang.com/process/hz/2010605988.htm,3
玉古路小区,56909,120.13249969482422,30.267812728881836,//fangjia.fang.com/process/hz/2010753210.htm,3
王家弄小区,51548,120.15303039550781,30.27433967590332,//fangjia.fang.com/process/hz/2010255022.htm,3
莫干山路79号,59060,120.16036987304688,30.28016471862793,//fangjia.fang.com/process/hz/2010889882.htm,3
仁寿山,56671,120.13549041748047,30.261430740356445,//fangjia.fang.com/process/hz/2010601784.htm,3
保俶路小区,58267,120.15583801269531,30.270917892456055,//fangjia.fang.com/process/hz/2010752484.htm,3
亚洲城花园东区,44360,120.1184310913086,30.281660079956055,//fangjia.fang.com/process/hz/2010584028.htm,3
保俶小区,57179,120.15303039550781,30.272533416748047,//fangjia.fang.com/process/hz/2010285104.htm,3
栖霞岭,65588,120.14068603515625,30.25933837890625,//fangjia.fang.com/process/hz/2010516462.htm,3
金祝花园,59877,120.15863800048828,30.27584457397461,//fangjia.fang.com/process/hz/2010249116.htm,3
文亭公寓,43394,120.14034271240234,30.29615020751953,//fangjia.fang.com/process/hz/2010535702.htm,3
宝麓山庄,39062,120.15470886230469,30.268714904785156,//fangjia.fang.com/process/hz/2010248382.htm,3
宝石新村,67842,120.15380096435547,30.270185470581055,//fangjia.fang.com/process/hz/2010584262.htm,3
教工路138号院,59632,120.14346313476562,30.287015914916992,//fangjia.fang.com/process/hz/2010630672.htm,3
龙游路小区,44828,120.16546630859375,30.267255783081055,//fangjia.fang.com/process/hz/2010804742.htm,3
白沙泉,56962,120.1432876586914,30.27073097229004,//fangjia.fang.com/process/hz/2010248386.htm,3
宝石二路小区,60785,120.15303039550781,30.270475387573242,//fangjia.fang.com/process/hz/2010753218.htm,3
北山路小区,55778,120.15064239501953,30.26190185546875,//fangjia.fang.com/process/hz/2010767738.htm,3
保俶花园,39961,120.14639282226562,30.288251876831055,//fangjia.fang.com/process/hz/2010828566.htm,3
宝石山下五弄,61250,120.15554809570312,30.269084930419922,//fangjia.fang.com/process/hz/2011051402.htm,3
宝石山下二弄,61173,120.15789794921875,30.26710319519043,//fangjia.fang.com/process/hz/2011103360.htm,3
宝石社区,73160,120.15795135498047,30.268512725830078,//fangjia.fang.com/process/hz/2010183614.htm,3
城河下小区,60561,120.16136169433594,30.269319534301758,//fangjia.fang.com/process/hz/2011096294.htm,3
达盟山庄商务公寓,57066,120.15809631347656,30.267974853515625,//fangjia.fang.com/process/hz/2010008087.htm,3
东山弄社区,66738,120.13518524169922,30.264286041259766,//fangjia.fang.com/process/hz/2010248438.htm,3
芳草苑,37117,120.14848327636719,30.285770416259766,//fangjia.fang.com/process/hz/2010255702.htm,3
葛岭山庄,57066,120.15118408203125,30.264562606811523,//fangjia.fang.com/process/hz/2010248588.htm,3
杭大路46号院,66189,120.14778900146484,30.274938583374023,//fangjia.fang.com/process/hz/2010859450.htm,3
嘉华国际公寓,58530,120.14704895019531,30.276016235351562,//fangjia.fang.com/process/hz/2010389302.htm,3
昆仑大厦,58275,120.15689086914062,30.274690628051758,//fangjia.fang.com/process/hz/2010388744.htm,3
留博楼,49744,120.1368408203125,30.270282745361328,//fangjia.fang.com/process/hz/2010827930.htm,3
绿宝公寓,57584,120.15797424316406,30.268796920776367,//fangjia.fang.com/process/hz/2010861050.htm,3
马塍路20号,60488,120.15434265136719,30.283649444580078,//fangjia.fang.com/process/hz/2011079450.htm,3
翠苑,43736,120.13593292236328000000,30.29324913024902300000,//fangjia.fang.com/zoushi/c0hz/a0151-b02348/,2
翠苑一区,40894,120.13434600830078,30.291894912719727,//fangjia.fang.com/process/hz/2010248422.htm,3
翠苑三区,39316,120.12764739990234,30.296178817749023,//fangjia.fang.com/process/hz/2010248426.htm,3
翠苑五区,37274,120.12773132324219,30.289520263671875,//fangjia.fang.com/process/hz/2010248430.htm,3
翠苑四区,39593,120.12759399414062,30.293621063232422,//fangjia.fang.com/process/hz/2010248428.htm,3
翠苑二区,40052,120.13445281982422,30.295337677001953,//fangjia.fang.com/process/hz/2010535022.htm,3
庆隆苑,36007,120.12763214111328,30.3016414642334,//fangjia.fang.com/process/hz/2010249782.htm,3
金色蓝庭,51538,120.12342071533203,30.294639587402344,//fangjia.fang.com/process/hz/2010318066.htm,3
翠苑东二区,37425,120.1357421875,30.299287796020508,//fangjia.fang.com/process/hz/2010608190.htm,3
翠苑逸景湾,38464,120.12918853759766,30.299203872680664,//fangjia.fang.com/process/hz/2011120102.htm,3
桃源春居,32871,120.11941528320312,30.297090530395508,//fangjia.fang.com/process/hz/2010406382.htm,3
学院春晓,42127,120.13426208496094,30.299423217773438,//fangjia.fang.com/process/hz/2010064146.htm,3
文二路小区,62196,120.14875793457031,30.28941535949707,//fangjia.fang.com/process/hz/2010603058.htm,3
翠苑北二区,34565,120.13459014892578,30.29751968383789,//fangjia.fang.com/process/hz/2010574906.htm,3
教工里,28557,120.14030456542969,30.300601959228516,//fangjia.fang.com/process/hz/2010602662.htm,3
翠苑佳居,44886,120.13017272949219,30.2991943359375,//fangjia.fang.com/process/hz/2010248868.htm,3
古荡湾南苑,14122,120.13053894042969,30.282344818115234,//fangjia.fang.com/process/hz/2010792460.htm,3
翠苑东四区,44158,120.13109588623047,30.29246711730957,//fangjia.fang.com/process/hz/2011044396.htm,3
保亭社区,68832,120.1400375366211,30.296451568603516,//fangjia.fang.com/process/hz/2010876966.htm,3
翠苑小区,46275,120.13811492919922,30.29693603515625,//fangjia.fang.com/process/hz/2010183616.htm,3
古荡湾新村,28053,120.13227844238281,30.291805267333984,//fangjia.fang.com/process/hz/2010248544.htm,3
莫干山路599号,52271,120.14970397949219,30.297771453857422,//fangjia.fang.com/process/hz/2010864798.htm,3
宋江苑,45047,120.1275863647461,30.298498153686523,//fangjia.fang.com/process/hz/2010249388.htm,3
省广电厅宿舍,36940,120.11029052734375,30.274688720703125,//fangjia.fang.com/process/hz/2010249824.htm,3
团校宿舍,53422,120.14250183105469,30.28982925415039,//fangjia.fang.com/process/hz/2010821462.htm,3
文菁花苑,35125,120.13153076171875,30.2956600189209,//fangjia.fang.com/process/hz/2010113240.htm,3
文一路小区,46345,120.1299057006836,30.293832778930664,//fangjia.fang.com/process/hz/2010606902.htm,3
文三路402号院,42454,120.13296508789062,30.28343391418457,//fangjia.fang.com/process/hz/2010761418.htm,3
学院路178号,47689,120.13584899902344,30.289878845214844,//fangjia.fang.com/process/hz/2010606478.htm,3
学苑春晓,0,,,//fangjia.fang.com/process/hz/2010633866.htm,3
学院路99号,51592,120.13558197021484,30.283721923828125,//fangjia.fang.com/process/hz/2010859226.htm,3
营盘地,68905,120.1395263671875,30.286842346191406,//fangjia.fang.com/process/hz/2010770704.htm,3
浙大文一路小区,68832,120.14019775390625,30.295120239257812,//fangjia.fang.com/process/hz/2010250314.htm,3
古荡,43693,120.12452697753906000000,30.28094100952148400000,//fangjia.fang.com/zoushi/c0hz/a0151-b02352/,2
古荡新村西区,34990,120.12008666992188,30.281545639038086,//fangjia.fang.com/process/hz/2010790304.htm,3
嘉绿西苑,43857,120.11726379394531,30.285985946655273,//fangjia.fang.com/process/hz/2010574704.htm,3
古荡新村东区,35535,120.12387084960938,30.2811279296875,//fangjia.fang.com/process/hz/2010608184.htm,3
坤和山水人家三期,39687,120.11685943603516,30.278350830078125,//fangjia.fang.com/process/hz/2010008090.htm,3
嘉绿青苑,42697,120.1223373413086,30.284679412841797,//fangjia.fang.com/process/hz/2010388786.htm,3
嘉绿文苑,39221,120.12027740478516,30.283403396606445,//fangjia.fang.com/process/hz/2010874656.htm,3
亚洲城花园西区,35876,120.11886596679688,30.281452178955078,//fangjia.fang.com/process/hz/2010409544.htm,3
龙湖唐宁ONE,51236,120.1248550415039,30.291336059570312,//fangjia.fang.com/process/hz/2011191424.htm,3
山水人家,37976,120.1152114868164,30.276531219482422,//fangjia.fang.com/process/hz/2010406384.htm,3
毛家桥公寓,47029,120.12290954589844,30.291912078857422,//fangjia.fang.com/process/hz/2010406466.htm,3
南都银座公寓,37966,120.11917114257812,30.287857055664062,//fangjia.fang.com/process/hz/2010007953.htm,3
嘉绿莲苑,43545,120.12349700927734,30.2882137298584,//fangjia.fang.com/process/hz/2010828576.htm,3
万塘路小区,42658,120.13032531738281,30.286842346191406,//fangjia.fang.com/process/hz/2010610874.htm,3
西苑小区,28014,120.1198959350586,30.298057556152344,//fangjia.fang.com/process/hz/2010250208.htm,3
文三西路小区,42033,120.11581420898438,30.282123565673828,//fangjia.fang.com/process/hz/2010795138.htm,3
月桂花园别墅,40106,120.11219787597656,30.282310485839844,//fangjia.fang.com/process/hz/2010587926.htm,3
丹桂花园,49036,120.1047134399414,30.281604766845703,//fangjia.fang.com/process/hz/2010811460.htm,3
东岳公寓,19355,120.09687042236328,30.261173248291016,//fangjia.fang.com/process/hz/2010828082.htm,3
古荡桥,56674,120.12986755371094,30.28282356262207,//fangjia.fang.com/process/hz/2010248504.htm,3
古荡湾北苑,45449,120.12947845458984,30.286102294921875,//fangjia.fang.com/process/hz/2010248542.htm,3
古荡小区,51537,120.12236022949219,30.278425216674805,//fangjia.fang.com/process/hz/2010248582.htm,3
古南社区,49175,120.1209945678711,30.279268264770508,//fangjia.fang.com/process/hz/2010248622.htm,3
华立碧水铭苑别墅,24045,120.04650115966797,30.28193473815918,//fangjia.fang.com/process/hz/2010063970.htm,3
黄姑山庄,41626,120.14068603515625,30.28125762939453,//fangjia.fang.com/process/hz/2010875362.htm,3
华星科技苑,51675,120.13044738769531,30.280010223388672,//fangjia.fang.com/process/hz/2010906964.htm,3
杭大路38号院,68444,120.14865112304688,30.27547264099121,//fangjia.fang.com/process/hz/2010906978.htm,3
嘉绿南苑,40878,120.12428283691406,30.284481048583984,//fangjia.fang.com/process/hz/2010346188.htm,3
聚龙大厦公寓,66206,120.14594268798828,30.27507781982422,//fangjia.fang.com/process/hz/2010387742.htm,3
聚丰公寓,59671,120.1340560913086,30.27731704711914,//fangjia.fang.com/process/hz/2010832628.htm,3
嘉乐金座,35182,120.12052917480469,30.293132781982422,//fangjia.fang.com/process/hz/2011051276.htm,3
浪琴翠园,45511,120.13404846191406,30.30247688293457,//fangjia.fang.com/process/hz/2010249222.htm,3
蓝海时代国际大厦,39671,120.11997985839844,30.286277770996094,//fangjia.fang.com/process/hz/2010582502.htm,3
龙都大厦公寓,51903,120.12586975097656,30.278738021850586,//fangjia.fang.com/process/hz/2010890086.htm,3
老东岳别墅,52789,120.10143280029297,30.26463508605957,//fangjia.fang.com/process/hz/2011046734.htm,3
炮台公寓,37976,120.11378479003906,30.27761459350586,//fangjia.fang.com/process/hz/2010249314.htm,3
省高院华星路宿舍,45437,120.12932586669922,30.285602569580078,//fangjia.fang.com/process/hz/2010345908.htm,3
省统计局宿舍,43026,120.14116668701172,30.287063598632812,//fangjia.fang.com/process/hz/2010759098.htm,3
天目山路338号,51903,120.12897491455078,30.278526306152344,//fangjia.fang.com/process/hz/2010820302.htm,3
亚洲城别墅,34547,120.11929321289062,30.282339096069336,//fangjia.fang.com/process/hz/2011056442.htm,3
益乐路58号,43992,120.120849609375,30.28745460510254,//fangjia.fang.com/process/hz/2011096052.htm,3
黄龙,57346,120.14038848876953000000,30.27260589599609400000,//fangjia.fang.com/zoushi/c0hz/a0151-b012918/,2
求是新村,65079,120.13448333740234,30.26947593688965,//fangjia.fang.com/process/hz/2010249784.htm,3
世贸丽晶城,67305,120.14466857910156,30.27964210510254,//fangjia.fang.com/process/hz/2010063922.htm,3
外东山弄,60050,120.13465881347656,30.263578414916992,//fangjia.fang.com/process/hz/2010516902.htm,3
曙光新村,66593,120.13758850097656,30.267166137695312,//fangjia.fang.com/process/hz/2010249830.htm,3
绿园,64803,120.13536071777344,30.2716007232666,//fangjia.fang.com/process/hz/2010015801.htm,3
黄龙雅苑,60732,120.1446533203125,30.27568244934082,//fangjia.fang.com/process/hz/2010064145.htm,3
庆丰新村,46121,120.13335418701172,30.275089263916016,//fangjia.fang.com/process/hz/2010409908.htm,3
里东山弄,58944,120.13569641113281,30.264572143554688,//fangjia.fang.com/process/hz/2010518902.htm,3
梧桐公寓,52601,120.1358642578125,30.292997360229492,//fangjia.fang.com/process/hz/2010130144.htm,3
曙光公寓,66607,120.13716125488281,30.262374877929688,//fangjia.fang.com/process/hz/2010249828.htm,3
丁香公寓,44451,120.13831329345703,30.277328491210938,//fangjia.fang.com/process/hz/2010064165.htm,3
桃花弄小区,54654,120.1562728881836,30.27500343322754,//fangjia.fang.com/process/hz/2010763264.htm,3
国际花园,31693,120.14435577392578,30.27799415588379,//fangjia.fang.com/process/hz/2010584912.htm,3
世贸丽晶城栖霞苑,61207,120.14864349365234,30.277891159057617,//fangjia.fang.com/process/hz/2010870698.htm,3
世贸丽晶城初阳苑,55505,120.14864349365234,30.277891159057617,//fangjia.fang.com/process/hz/2010870700.htm,3
世贸丽晶城EAC公寓,64000,120.14366912841797,30.27988052368164,//fangjia.fang.com/process/hz/2010183872.htm,3
天目山路101号,46014,120.10787963867188,30.272945404052734,//fangjia.fang.com/process/hz/2011100790.htm,3
世贸丽晶城望湖苑,58871,120.14864349365234,30.277891159057617,//fangjia.fang.com/process/hz/2010870690.htm,3
世贸丽晶城玉泉苑,58548,120.14864349365234,30.277891159057617,//fangjia.fang.com/process/hz/2010870694.htm,3
世贸丽晶城宝石苑,61733,120.14864349365234,30.277891159057617,//fangjia.fang.com/process/hz/2010870696.htm,3
黄龙世纪苑,58542,120.14581298828125,30.276165008544922,//fangjia.fang.com/process/hz/2010387702.htm,3
黄龙雅苑公寓,65323,120.14466094970703,30.275503158569336,//fangjia.fang.com/process/hz/2010183874.htm,3
教工路131号院,70320,120.1417465209961,30.290300369262695,//fangjia.fang.com/process/hz/2011074030.htm,3
欧美中心,27611,120.14359283447266,30.277603149414062,//fangjia.fang.com/process/hz/2010747272.htm,3
天目山路228号,66342,120.13418579101562,30.279735565185547,//fangjia.fang.com/process/hz/2011069236.htm,3
蒋村,42425,120.07286834716797000000,30.29399490356445300000,//fangjia.fang.com/zoushi/c0hz/a0151-b02350/,2
华苑公寓,55851,120.10450744628906,30.29369354248047,//fangjia.fang.com/process/hz/2010248708.htm,3
政新花园,54196,120.10543823242188,30.297069549560547,//fangjia.fang.com/process/hz/2010250348.htm,3
紫荆欣苑,67403,120.10009002685547,30.29828643798828,//fangjia.fang.com/process/hz/2011104114.htm,3
泰和中央广场,32105,,,//fangjia.fang.com/process/hz/2010185386.htm,3
金桂大厦,24451,120.10574340820312,30.288297653198242,//fangjia.fang.com/process/hz/2010738540.htm,3
星洲花园排屋,67035,120.1019515991211,30.29511833190918,//fangjia.fang.com/process/hz/2011100804.htm,3
登新公寓,21842,120.0964126586914,30.284194946289062,//fangjia.fang.com/process/hz/2010729938.htm,3
富越香墅,47837,120.0958251953125,30.29723358154297,//fangjia.fang.com/process/hz/2010543742.htm,3
蒋村花园,25489,120.08892059326172,30.289318084716797,//fangjia.fang.com/process/hz/2010248826.htm,3
嘉禾花苑,35177,120.1024169921875,30.27819061279297,//fangjia.fang.com/process/hz/2010248902.htm,3
骆家庄西苑,23655,120.09918212890625,30.291423797607422,//fangjia.fang.com/process/hz/2010249150.htm,3
通策在河之洲,40964,120.04356384277344,30.277915954589844,//fangjia.fang.com/process/hz/2010064181.htm,3
许家坞,51916,116.98334503173828,29.2464542388916,//fangjia.fang.com/process/hz/2010250190.htm,3
香墅,46026,120.09585571289062,30.297250747680664,//fangjia.fang.com/process/hz/2010906270.htm,3
九莲,47658,120.13360595703125000000,30.28623771667480500000,//fangjia.fang.com/zoushi/c0hz/a0151-b014817/,2
九莲新村,36708,120.13758850097656,30.28458595275879,//fangjia.fang.com/process/hz/2010248950.htm,3
枫华府第,51347,120.13417053222656,30.287813186645508,//fangjia.fang.com/process/hz/2010098257.htm,3
天苑花园,28661,120.12906646728516,30.28374481201172,//fangjia.fang.com/process/hz/2010249994.htm,3
花园南村,60296,120.14089965820312,30.289091110229492,//fangjia.fang.com/process/hz/2010248744.htm,3
启真名苑,57478,120.15169525146484,30.278671264648438,//fangjia.fang.com/process/hz/2010604088.htm,3
西湖明珠公寓,36685,120.13004302978516,30.28422737121582,//fangjia.fang.com/process/hz/2010007898.htm,3
花园西村,59092,120.13663482666016,30.288433074951172,//fangjia.fang.com/process/hz/2010248786.htm,3
花园北村,56186,120.13886260986328,30.28976058959961,//fangjia.fang.com/process/hz/2010248716.htm,3
华远大厦,33473,120.13253784179688,30.28272247314453,//fangjia.fang.com/process/hz/2010888126.htm,3
景城花园,47324,120.13386535644531,30.284940719604492,//fangjia.fang.com/process/hz/2010067841.htm,3
华门世家,33133,120.13665008544922,30.28256607055664,//fangjia.fang.com/process/hz/2010064125.htm,3
华星公寓,40469,120.12953186035156,30.28511619567871,//fangjia.fang.com/process/hz/2010248714.htm,3
黄姑山路小区,40842,120.14030456542969,30.281341552734375,//fangjia.fang.com/process/hz/2010868190.htm,3
康新花园,28090,120.12744140625,30.281837463378906,//fangjia.fang.com/process/hz/2010249138.htm,3
中融城市花园,45949,120.13508605957031,30.278160095214844,//fangjia.fang.com/process/hz/2010742500.htm,3
花园新村,66313,120.14411926269531,30.286434173583984,//fangjia.fang.com/process/hz/2010248784.htm,3
教师公寓,89570,120.12986755371094,30.287429809570312,//fangjia.fang.com/process/hz/2010515014.htm,3
教工路65号院,39537,120.1419906616211,30.286117553710938,//fangjia.fang.com/process/hz/2010826592.htm,3
教工路52号,64739,120.14320373535156,30.28207778930664,//fangjia.fang.com/process/hz/2010826620.htm,3
曲荷巷小区,37159,120.1364517211914,30.281131744384766,//fangjia.fang.com/process/hz/2010696018.htm,3
塘苗路28号,36750,120.12775421142578,30.280527114868164,//fangjia.fang.com/process/hz/2010763260.htm,3
伟星大厦,33429,120.14205169677734,30.283483505249023,//fangjia.fang.com/process/hz/2010761788.htm,3
伟星公寓,46730,120.14055633544922,30.2834415435791,//fangjia.fang.com/process/hz/2010802342.htm,3
文三路小区,60482,120.15208435058594,30.283571243286133,//fangjia.fang.com/process/hz/2011246506.htm,3
欣园居,54093,120.1433334350586,30.283092498779297,//fangjia.fang.com/process/hz/2010250204.htm,3
学院路59号,47685,120.1359634399414,30.289295196533203,//fangjia.fang.com/process/hz/2010630622.htm,3
影业路小区,57206,120.14078521728516,30.286375045776367,//fangjia.fang.com/process/hz/2010802308.htm,3
中兴文都苑,44987,120.131591796875,30.281856536865234,//fangjia.fang.com/process/hz/2010293906.htm,3
灵隐,50436,120.10866546630859000000,30.24541854858398400000,//fangjia.fang.com/zoushi/c0hz/a0151-b02346/,2
西湖花园别墅,49786,120.11073303222656,30.18520164489746,//fangjia.fang.com/process/hz/2010155784.htm,3
杭大新村,51534,120.1494369506836,30.27546501159668,//fangjia.fang.com/process/hz/2010248666.htm,3
白乐人家,33831,120.11480712890625,30.25033187866211,//fangjia.fang.com/process/hz/2010744066.htm,3
白乐桥,71333,120.11412048339844,30.251171112060547,//fangjia.fang.com/process/hz/2010828386.htm,3
常安度假别墅,40440,120.07255554199219,30.177705764770508,//fangjia.fang.com/process/hz/2011102948.htm,3
九里松花苑,56696,120.12462615966797,30.251300811767578,//fangjia.fang.com/process/hz/2010248944.htm,3
梅家坞,67703,120.09547424316406,30.21101951599121,//fangjia.fang.com/process/hz/2010828362.htm,3
庆丰公寓,59689,120.13016510009766,30.27684783935547,//fangjia.fang.com/process/hz/2010574708.htm,3
三台云舍,55005,120.13977813720703,30.233606338500977,//fangjia.fang.com/process/hz/2010811462.htm,3
天竺路小区,67673,120.11244201660156,30.245851516723633,//fangjia.fang.com/process/hz/2011092664.htm,3
天竺路别墅,56404,120.11244201660156,30.245851516723633,//fangjia.fang.com/process/hz/2011092670.htm,3
五云山庄,35188,120.11823272705078,30.19253921508789,//fangjia.fang.com/process/hz/2010250106.htm,3
下满觉陇,10387,120.14152526855469,30.223167419433594,//fangjia.fang.com/process/hz/2011108832.htm,3
留下,32503,120.06452178955078000000,30.24896049499511700000,//fangjia.fang.com/zoushi/c0hz/a0151-b05138/,2
铂悦城,26658,,,//fangjia.fang.com/process/hz/2010185330.htm,3
和家园,42906,120.06817626953125,30.239648818969727,//fangjia.fang.com/process/hz/2010928832.htm,3
翰墨香林苑,21027,120.02392578125,30.216691970825195,//fangjia.fang.com/process/hz/2010315462.htm,3
复地黄龙和山,39867,120.07125854492188,30.248231887817383,//fangjia.fang.com/process/hz/2011121086.htm,3
浪漫和山,21189,120.01994323730469,30.218454360961914,//fangjia.fang.com/process/hz/2010409246.htm,3
和家园(南区),43708,,,//fangjia.fang.com/process/hz/2010185326.htm,3
留下西苑,30280,120.05992889404297,30.247568130493164,//fangjia.fang.com/process/hz/2010516782.htm,3
浪漫和山别墅,26126,120.0312728881836,30.209962844848633,//fangjia.fang.com/process/hz/2010064190.htm,3
西溪明珠,54932,120.06559753417969,30.258127212524414,//fangjia.fang.com/process/hz/2011103280.htm,3
滨江西溪明珠,53100,120.06646728515625,30.2543888092041,//fangjia.fang.com/process/hz/2011079724.htm,3
西溪十九府公寓,22583,120.03663635253906,30.217824935913086,//fangjia.fang.com/process/hz/2010183540.htm,3
西溪晴雪,41917,120.06290435791016,30.250398635864258,//fangjia.fang.com/process/hz/2010507342.htm,3
屏峰新村,31733,120.05570983886719,30.2296142578125,//fangjia.fang.com/process/hz/2010828076.htm,3
茶市新村,30258,120.06341552734375,30.246427536010742,//fangjia.fang.com/process/hz/2010248392.htm,3
九月森林别墅,32255,120.02865600585938,30.214590072631836,//fangjia.fang.com/process/hz/2010064231.htm,3
留下街13号小区,28275,,,//fangjia.fang.com/process/hz/2010185508.htm,3
西溪梅园,29986,120.06622314453125,30.247610092163086,//fangjia.fang.com/process/hz/2010752228.htm,3
坤和求是里,42542,120.07386016845703,30.246482849121094,//fangjia.fang.com/process/hz/2011153054.htm,3
留下街石油小区,33292,120.0557861328125,30.249582290649414,//fangjia.fang.com/process/hz/2010615624.htm,3
九月森林,41543,120.05004119873047,30.227914810180664,//fangjia.fang.com/process/hz/2010584918.htm,3
留庄,34486,120.0744400024414,30.260515213012695,//fangjia.fang.com/process/hz/2010298982.htm,3
五常乡白庙村,31621,120.04872131347656,30.26741600036621,//fangjia.fang.com/process/hz/2010182354.htm,3
西溪名园别墅,36204,120.08028411865234,30.26420783996582,//fangjia.fang.com/process/hz/2010597022.htm,3
西溪佳苑,21351,120.07450866699219,30.24913215637207,//fangjia.fang.com/process/hz/2010903496.htm,3
西溪壹树公寓,23351,120.06219482421875,30.251834869384766,//fangjia.fang.com/process/hz/2011094314.htm,3
云山秀水,24379,120.01461029052734,30.21478271484375,//fangjia.fang.com/process/hz/2011098280.htm,3
安乐新村,32618,120.06493377685547,30.24765968322754,//fangjia.fang.com/process/hz/2010248342.htm,3
东木坞村,18505,120.06452178955078,30.248960494995117,//fangjia.fang.com/process/hz/2010828070.htm,3
海陆UN公社,29791,120.04681396484375,30.22418785095215,//fangjia.fang.com/process/hz/2010635146.htm,3
花坞新村,19355,120.08338928222656,30.26162338256836,//fangjia.fang.com/process/hz/2010804508.htm,3
黄龙和山公寓,40719,120.0709228515625,30.247663497924805,//fangjia.fang.com/process/hz/2010183858.htm,3
坤和和家园别墅,54655,120.06501770019531,30.247360229492188,//fangjia.fang.com/process/hz/2010179982.htm,3
留和家苑,28296,120.06108856201172,30.243013381958008,//fangjia.fang.com/process/hz/2010956936.htm,3
留庄别墅,44203,120.07891082763672,30.261938095092773,//fangjia.fang.com/process/hz/2011075954.htm,3
留下大街小区,36751,120.05926513671875,30.245046615600586,//fangjia.fang.com/process/hz/2011102802.htm,3
苗圃宿舍,19350,120.09647369384766,30.265127182006836,//fangjia.fang.com/process/hz/2011093404.htm,3
石油地质勘探小区,30592,120.06648254394531,30.248157501220703,//fangjia.fang.com/process/hz/2010249948.htm,3
小和山林野山居,25880,120.03522491455078,30.21968650817871,//fangjia.fang.com/process/hz/2010250184.htm,3
西溪君逸汇,22460,120.06342315673828,30.245805740356445,//fangjia.fang.com/process/hz/2010465942.htm,3
西苑新村,37185,120.0589370727539,30.247549057006836,//fangjia.fang.com/process/hz/2010605984.htm,3
三墩,28220,120.06854248046875000000,30.32595634460449200000,//fangjia.fang.com/zoushi/c0hz/a0151-b02349/,2
都市阳光嘉苑,26611,120.0743637084961,30.34306526184082,//fangjia.fang.com/process/hz/2011153356.htm,3
金地自在城林溪里,37130,120.07501983642578,30.337095260620117,//fangjia.fang.com/process/hz/2010185168.htm,3
金地自在城,38428,120.08529663085938,30.343669891357422,//fangjia.fang.com/process/hz/2010466102.htm,3
中国铁建西湖国际城,29297,120.07412719726562,30.3388729095459,//fangjia.fang.com/process/hz/2010182722.htm,3
协安紫郡,35281,120.07937622070312,30.33140754699707,//fangjia.fang.com/process/hz/2010859306.htm,3
中海紫藤苑,34398,120.07471466064453,30.33009910583496,//fangjia.fang.com/process/hz/2010878670.htm,3
龙湖水晶郦城,28624,120.07234954833984,30.349605560302734,//fangjia.fang.com/process/hz/2010182478.htm,3
紫金名门,35015,120.09198760986328,30.32415771484375,//fangjia.fang.com/process/hz/2011130720.htm,3
都市水乡水秀苑,27814,120.09925842285156,30.329904556274414,//fangjia.fang.com/process/hz/2010827218.htm,3
景溪北苑,27344,120.07328796386719,30.354999542236328,//fangjia.fang.com/process/hz/2010183984.htm,3
中兴墩莳家园,26828,120.07866668701172,30.338054656982422,//fangjia.fang.com/process/hz/2011005238.htm,3
金地自在城鹭影轩,36920,120.07137298583984,30.33390235900879,//fangjia.fang.com/process/hz/2010185156.htm,3
宝嘉誉府,34819,120.08984375,30.31975555419922,//fangjia.fang.com/process/hz/2011211104.htm,3
亲亲家园三期,27552,120.09026336669922,30.34134292602539,//fangjia.fang.com/process/hz/2010761378.htm,3
新星小区,29179,120.09342193603516,30.32841682434082,//fangjia.fang.com/process/hz/2010250202.htm,3
杭州金地广场,24520,120.0894775390625,30.345382690429688,//fangjia.fang.com/process/hz/2011189716.htm,3
白马尊邸,34253,120.08724212646484,30.340560913085938,//fangjia.fang.com/process/hz/2010206502.htm,3
国风美域,36735,120.1001968383789,30.32370376586914,//fangjia.fang.com/process/hz/2011170196.htm,3
铭雅苑,27191,120.0922622680664,30.344520568847656,//fangjia.fang.com/process/hz/2010245462.htm,3
润达花园,28200,120.09727478027344,30.33207893371582,//fangjia.fang.com/process/hz/2010416192.htm,3
丰盛九玺公寓,11169,,,//fangjia.fang.com/process/hz/2010183848.htm,3
港湾家园,43678,120.09252166748047,30.316631317138672,//fangjia.fang.com/process/hz/2010642734.htm,3
三墩颐景园,37815,120.08851623535156,30.338153839111328,//fangjia.fang.com/process/hz/2010007762.htm,3
金地自在城栖霞居,37480,120.0736083984375,30.335786819458008,//fangjia.fang.com/process/hz/2010185162.htm,3
爱尚里,18503,120.0857925415039,30.32093620300293,//fangjia.fang.com/process/hz/2011089568.htm,3
金地自在城悦活轩,34698,120.07601165771484,30.336278915405273,//fangjia.fang.com/process/hz/2010185160.htm,3
兰韵天城,35520,120.0923080444336,30.33606719970703,//fangjia.fang.com/process/hz/2010104945.htm,3
金地自在城求学里,37122,120.07789611816406,30.33966827392578,//fangjia.fang.com/process/hz/2010185158.htm,3
乾成园,28102,120.0799331665039,30.318723678588867,//fangjia.fang.com/process/hz/2011136382.htm,3
都市水乡,29915,120.0971450805664,30.338226318359375,//fangjia.fang.com/process/hz/2010389426.htm,3
红杉雅园公寓,19588,120.09940338134766,30.334566116333008,//fangjia.fang.com/process/hz/2010183764.htm,3
新世纪花苑,27670,120.09707641601562,30.330585479736328,//fangjia.fang.com/process/hz/2010250192.htm,3
天虹公寓,29312,120.09855651855469,30.320035934448242,//fangjia.fang.com/process/hz/2010777858.htm,3
中海金溪园,37987,120.0894775390625,30.343425750732422,//fangjia.fang.com/process/hz/2010989396.htm,3
紫金文苑,42032,120.10662078857422,30.30221176147461,//fangjia.fang.com/process/hz/2010621738.htm,3
西港发展中心,12905,120.07310485839844,30.31786346435547,//fangjia.fang.com/process/hz/2011085166.htm,3
裕华大厦,9830,120.08451080322266,30.321300506591797,//fangjia.fang.com/process/hz/2010750418.htm,3
华彩国际公寓,9893,120.07632446289062,30.32732391357422,//fangjia.fang.com/process/hz/2011063320.htm,3
桔子里,12524,120.09083557128906,30.337867736816406,//fangjia.fang.com/process/hz/2010840590.htm,3
浙大森林·ZClass,27106,120.07070922851562,30.3133602142334,//fangjia.fang.com/process/hz/2010185236.htm,3
申花,39387,120.10953521728516000000,30.31498336791992200000,//fangjia.fang.com/zoushi/c0hz/a0151-b07472/,2
中梁申花百悦公馆,32738,,,//fangjia.fang.com/process/hz/2010185432.htm,3
万家花城,47094,120.12000274658203,30.31014633178711,//fangjia.fang.com/process/hz/2010167822.htm,3
欣盛东方福邸,52030,120.11882781982422,30.312894821166992,//fangjia.fang.com/process/hz/2010900568.htm,3
招商九龙仓学院北麓,43223,120.10830688476562,30.32594108581543,//fangjia.fang.com/process/hz/2011133644.htm,3
中天西城纪公寓,27928,120.11771392822266,30.299795150756836,//fangjia.fang.com/process/hz/2011040824.htm,3
融信学院府,46583,120.1127700805664,30.322128295898438,//fangjia.fang.com/process/hz/2011252310.htm,3
政苑小区,43805,120.11083221435547,30.302438735961914,//fangjia.fang.com/process/hz/2010406124.htm,3
圣苑,57118,120.10157775878906,30.308929443359375,//fangjia.fang.com/process/hz/2010602382.htm,3
西城年华,47889,120.1080322265625,30.315658569335938,//fangjia.fang.com/process/hz/2010087008.htm,3
滨江锦绣之城,58882,120.13514709472656,30.309511184692383,//fangjia.fang.com/process/hz/2010182460.htm,3
资辉壹方汇,30598,120.12630462646484,30.315786361694336,//fangjia.fang.com/process/hz/2010184940.htm,3
碧桂园西江月,47238,120.11837005615234,30.31606674194336,//fangjia.fang.com/process/hz/2011283092.htm,3
融信蓝孔雀,49337,120.11239624023438,30.326616287231445,//fangjia.fang.com/process/hz/2011134800.htm,3
西城美墅,52968,120.10713958740234,30.31757164001465,//fangjia.fang.com/process/hz/2010362784.htm,3
协安上郡,47089,120.10813903808594,30.312135696411133,//fangjia.fang.com/process/hz/2010365702.htm,3
赛丽绿城慧园,54286,120.1121826171875,30.312570571899414,//fangjia.fang.com/process/hz/2010952982.htm,3
上尚庭,50588,120.11872863769531,30.306079864501953,//fangjia.fang.com/process/hz/2010762622.htm,3
龙申剑桥公社,10629,120.10061645507812,30.31170654296875,//fangjia.fang.com/process/hz/2010175064.htm,3
尚景国际,56332,120.12503814697266,30.312366485595703,//fangjia.fang.com/process/hz/2011076940.htm,3
芳满庭,45048,120.11273193359375,30.302671432495117,//fangjia.fang.com/process/hz/2010243462.htm,3
绅华府,50337,120.12112426757812,30.305805206298828,//fangjia.fang.com/process/hz/2010383274.htm,3
金地申花里,35515,120.11170959472656,30.329030990600586,//fangjia.fang.com/process/hz/2011107134.htm,3
景瑞悦西台,48405,120.11064147949219,30.31478500366211,//fangjia.fang.com/process/hz/2011242706.htm,3
丽阳苑,45362,120.10549926757812,30.310312271118164,//fangjia.fang.com/process/hz/2010633112.htm,3
三江花园道壹号,46275,120.11116790771484,30.324016571044922,//fangjia.fang.com/process/hz/2011137046.htm,3
橡树园,44985,120.11426544189453,30.3078556060791,//fangjia.fang.com/process/hz/2010243422.htm,3
城西银泰城公寓,19526,120.11419677734375,30.30598258972168,//fangjia.fang.com/process/hz/2010184204.htm,3
未来印,18353,120.0008316040039,30.27577018737793,//fangjia.fang.com/process/hz/2010185290.htm,3
冠苑小区,58158,120.10420989990234,30.302303314208984,//fangjia.fang.com/process/hz/2011078828.htm,3
同人广场,13204,120.10554504394531,30.30565071105957,//fangjia.fang.com/process/hz/2010594822.htm,3
同人精华公寓,22769,120.10565948486328,30.30778694152832,//fangjia.fang.com/process/hz/2011062744.htm,3
五洲国际公寓,24778,120.10417938232422,30.30060577392578,//fangjia.fang.com/process/hz/2011136698.htm,3
保利香槟国际,50936,120.11701202392578,30.314300537109375,//fangjia.fang.com/process/hz/2010934796.htm,3
景瑞申花壹号院,48939,120.11217498779297,30.314481735229492,//fangjia.fang.com/process/hz/2011130316.htm,3
天阳武林邸,57158,120.12882232666016,30.314481735229492,//fangjia.fang.com/process/hz/2010182592.htm,3
瑞博国际公寓,13127,120.10304260253906,30.308635711669922,//fangjia.fang.com/process/hz/2010904180.htm,3
和苑小区,42135,120.11119079589844,30.305770874023438,//fangjia.fang.com/process/hz/2010995338.htm,3
新城金镶玉,49100,120.11038970947266,30.324005126953125,//fangjia.fang.com/process/hz/2011197038.htm,3
申瑞国际,19585,120.11012268066406,30.313756942749023,//fangjia.fang.com/process/hz/2011091222.htm,3
西铭苑,41088,120.11940002441406,30.304044723510742,//fangjia.fang.com/process/hz/2010904202.htm,3
文教,54723,120.12104034423828000000,30.28551483154296900000,//fangjia.fang.com/zoushi/c0hz/a0151-b014816/,2
文三新村,57690,120.15176391601562,30.283185958862305,//fangjia.fang.com/process/hz/2010250068.htm,3
石灰桥新村,51348,120.1529769897461,30.291593551635742,//fangjia.fang.com/process/hz/2010249862.htm,3
融信杭州公馆,57579,120.13683319091797,30.298612594604492,//fangjia.fang.com/process/hz/2011185078.htm,3
邮电新村,61551,120.15514373779297,30.286407470703125,//fangjia.fang.com/process/hz/2010544994.htm,3
白荡海人家,49577,120.14932250976562,30.29511070251465,//fangjia.fang.com/process/hz/2010007756.htm,3
金都城市芯宇,53209,120.14395141601562,30.294816970825195,//fangjia.fang.com/process/hz/2010243822.htm,3
沈塘新村,58889,120.15534210205078,30.285499572753906,//fangjia.fang.com/process/hz/2010409786.htm,3
银马公寓,57348,120.14395904541016,30.293855667114258,//fangjia.fang.com/process/hz/2010124022.htm,3
建工新村,48855,120.15420532226562,30.2885799407959,//fangjia.fang.com/process/hz/2010248866.htm,3
兰庭国际,53675,120.14604949951172,30.28975486755371,//fangjia.fang.com/process/hz/2010064371.htm,3
御西湖,69005,120.13722229003906,30.291671752929688,//fangjia.fang.com/process/hz/2010507302.htm,3
武林门新村,57793,120.1564712524414,30.282716751098633,//fangjia.fang.com/process/hz/2010250064.htm,3
华海园,49592,120.14757537841797,30.296497344970703,//fangjia.fang.com/process/hz/2010064141.htm,3
西溪河东,67500,120.14718627929688,30.286643981933594,//fangjia.fang.com/process/hz/2010250196.htm,3
溪畔花园,49879,120.14517974853516,30.295724868774414,//fangjia.fang.com/process/hz/2010317824.htm,3
马塍路小区,70373,120.15481567382812,30.28158950805664,//fangjia.fang.com/process/hz/2010587922.htm,3
恒升花苑,51475,120.14983367919922,30.283172607421875,//fangjia.fang.com/process/hz/2010410156.htm,3
文萃苑,52378,120.13777923583984,30.2938232421875,//fangjia.fang.com/process/hz/2010065300.htm,3
武林花园,54783,120.15572357177734,30.279306411743164,//fangjia.fang.com/process/hz/2010416062.htm,3
中豪晴园,57026,120.13961029052734,30.293880462646484,//fangjia.fang.com/process/hz/2010066721.htm,3
郡枫华庭,48648,120.14653778076172,30.296321868896484,//fangjia.fang.com/process/hz/2010184290.htm,3
今日嘉园,57068,120.13945007324219,30.295671463012695,//fangjia.fang.com/process/hz/2010383182.htm,3
日晖新村,77035,120.15428924560547,30.289400100708008,//fangjia.fang.com/process/hz/2010249786.htm,3
兴财名都苑,51285,120.14998626708984,30.292455673217773,//fangjia.fang.com/process/hz/2010064143.htm,3
师苑新村,61634,120.14400482177734,30.288053512573242,//fangjia.fang.com/process/hz/2010249982.htm,3
文欣苑,55544,120.14328002929688,30.288414001464844,//fangjia.fang.com/process/hz/2010007863.htm,3
窑背巷,55110,120.15338897705078,30.279088973999023,//fangjia.fang.com/process/hz/2010602386.htm,3
文天公寓,54930,120.15391540527344,30.277769088745117,//fangjia.fang.com/process/hz/2010603982.htm,3
华门自由21世纪公寓,39101,120.14161682128906,30.298429489135742,//fangjia.fang.com/process/hz/2010064122.htm,3
混堂巷,56114,120.15791320800781,30.280426025390625,//fangjia.fang.com/process/hz/2010744018.htm,3
保俶北路小区,62000,120.14701080322266,30.287363052368164,//fangjia.fang.com/process/hz/2010599584.htm,3
武林巷小区,67110,120.1530990600586,30.280845642089844,//fangjia.fang.com/process/hz/2010608446.htm,3
浙大宿舍,51946,120.14775085449219,30.29442596435547,//fangjia.fang.com/process/hz/2010792518.htm,3
翠锦苑,39286,120.1325454711914,30.29904556274414,//fangjia.fang.com/process/hz/2010638178.htm,3
锦绣文苑,53252,120.15800476074219,30.279983520507812,//fangjia.fang.com/process/hz/2010063762.htm,3
西溪河下,52399,120.14801788330078,30.297603607177734,//fangjia.fang.com/process/hz/2010580870.htm,3
新德雅公寓,38643,120.14193725585938,30.29718017578125,//fangjia.fang.com/process/hz/2010587910.htm,3
白荡海社区,49981,120.149169921875,30.297943115234375,//fangjia.fang.com/process/hz/2011100258.htm,3
德雅花园,34749,120.14164733886719,30.296981811523438,//fangjia.fang.com/process/hz/2010248462.htm,3
教工路95号,66323,120.14187622070312,30.287891387939453,//fangjia.fang.com/process/hz/2011118920.htm,3
文新,45137,120.10430145263672000000,30.29156875610351600000,//fangjia.fang.com/zoushi/c0hz/a0151-b02351/,2
世纪新城,47462,120.11962890625,30.289533615112305,//fangjia.fang.com/process/hz/2010093460.htm,3
雅仕苑,45119,120.1115951538086,30.291501998901367,//fangjia.fang.com/process/hz/2010065520.htm,3
星洲花园,53957,120.101318359375,30.297128677368164,//fangjia.fang.com/process/hz/2010406188.htm,3
金成花园,46635,120.1125717163086,30.289798736572266,//fangjia.fang.com/process/hz/2010248824.htm,3
嘉绿名苑,44765,120.12086486816406,30.286376953125,//fangjia.fang.com/process/hz/2010516862.htm,3
南都花园,40371,120.11036682128906,30.295000076293945,//fangjia.fang.com/process/hz/2010249310.htm,3
高教新村,49682,120.10294342041016,30.29288101196289,//fangjia.fang.com/process/hz/2010544982.htm,3
新金都城市花园,50465,120.10367584228516,30.291431427001953,//fangjia.fang.com/process/hz/2010007890.htm,3
物华小区,34259,120.11625671386719,30.29778289794922,//fangjia.fang.com/process/hz/2010250026.htm,3
嘉绿北苑,42923,120.1242904663086,30.28750228881836,//fangjia.fang.com/process/hz/2010293862.htm,3
湖畔花园,45214,120.10794830322266,30.294330596923828,//fangjia.fang.com/process/hz/2010007759.htm,3
紫桂花园,51086,120.11005401611328,30.289037704467773,//fangjia.fang.com/process/hz/2010007881.htm,3
桂花城,54039,120.10252380371094,30.287660598754883,//fangjia.fang.com/process/hz/2010406302.htm,3
恩济花苑,40268,120.11353302001953,30.28842544555664,//fangjia.fang.com/process/hz/2010248464.htm,3
东海名仕家园,48072,120.10845184326172,30.292516708374023,//fangjia.fang.com/process/hz/2010064154.htm,3
嘉南公寓,53570,120.10037231445312,30.29306983947754,//fangjia.fang.com/process/hz/2010249024.htm,3
湖畔莲花港家园,40699,120.11583709716797,30.296722412109375,//fangjia.fang.com/process/hz/2010007875.htm,3
林语别墅,68718,120.09699249267578,30.2887020111084,//fangjia.fang.com/process/hz/2010007743.htm,3
南都德迦,41876,120.10980987548828,30.287227630615234,//fangjia.fang.com/process/hz/2010007729.htm,3
南都德迦西区,45724,120.1096420288086,30.286401748657227,//fangjia.fang.com/process/hz/2010516542.htm,3
紫林公寓,52382,120.09880828857422,30.293777465820312,//fangjia.fang.com/process/hz/2010250342.htm,3
兰桂花园,48781,120.10684967041016,30.28914451599121,//fangjia.fang.com/process/hz/2010544422.htm,3
府新花园,47187,120.09867858886719,30.28672981262207,//fangjia.fang.com/process/hz/2010248502.htm,3
嘉绿苑北区,44772,120.12300872802734,30.28443145751953,//fangjia.fang.com/process/hz/2010008073.htm,3
天湖公寓,35184,120.11271667480469,30.294322967529297,//fangjia.fang.com/process/hz/2010249986.htm,3
文溪鼎园,47996,120.11164855957031,30.295787811279297,//fangjia.fang.com/process/hz/2010972128.htm,3
嘉绿福苑,38109,120.12069702148438,30.28762435913086,//fangjia.fang.com/process/hz/2010874936.htm,3
嘉绿苑南区,44816,120.12347412109375,30.28411865234375,//fangjia.fang.com/process/hz/2011051964.htm,3
金都花园,37881,120.10496520996094,30.282270431518555,//fangjia.fang.com/process/hz/2010549544.htm,3
申悦国际公寓,21011,120.10308074951172,30.307876586914062,//fangjia.fang.com/process/hz/2010182614.htm,3
春天花园,40100,120.10662841796875,30.294004440307617,//fangjia.fang.com/process/hz/2010584824.htm,3
天河西苑,38039,120.11137390136719,30.297086715698242,//fangjia.fang.com/process/hz/2010064153.htm,3
阳光地带,48856,120.09781646728516,30.293214797973633,//fangjia.fang.com/process/hz/2010064105.htm,3
皇朝城市花园排屋,47477,120.10176086425781,30.280227661132812,//fangjia.fang.com/process/hz/2011105722.htm,3
拱苑小区,28007,120.11457061767578,30.303848266601562,//fangjia.fang.com/process/hz/2010248624.htm,3
嘉绿景苑西园,37150,120.10718536376953,30.282052993774414,//fangjia.fang.com/process/hz/2010904196.htm,3
湖畔花园别墅,49302,120.10942077636719,30.29355239868164,//fangjia.fang.com/process/hz/2011056320.htm,3
南都花园别墅,58181,120.10962677001953,30.29775619506836,//fangjia.fang.com/process/hz/2011100808.htm,3
富丽苑,35499,120.11866760253906,30.283016204833984,//fangjia.fang.com/process/hz/2010248466.htm,3
南都德迦东区,46491,120.11337280273438,30.287010192871094,//fangjia.fang.com/process/hz/2010802340.htm,3
文苑,42780,120.12006378173828000000,30.29414367675781300000,//fangjia.fang.com/zoushi/c0hz/a0151-b015526/,2
香樟公寓,43207,120.11347198486328,30.286121368408203,//fangjia.fang.com/process/hz/2010007959.htm,3
金都新城,38269,120.11418151855469,30.283893585205078,//fangjia.fang.com/process/hz/2010007722.htm,3
黄龙金茂悦,48054,120.11994934082031,30.30054473876953,//fangjia.fang.com/process/hz/2011132910.htm,3
康乐新村,37036,120.1084976196289,30.282875061035156,//fangjia.fang.com/process/hz/2010249134.htm,3
紫金公寓,38594,120.10819244384766,30.284456253051758,//fangjia.fang.com/process/hz/2010250318.htm,3
沁雅花园,37761,120.11300659179688,30.28097152709961,//fangjia.fang.com/process/hz/2010007860.htm,3
金田花园,35140,120.10518646240234,30.28422737121582,//fangjia.fang.com/process/hz/2010252264.htm,3
中兴公寓,39512,120.10797882080078,30.28562355041504,//fangjia.fang.com/process/hz/2010250346.htm,3
府苑新村,44347,120.10059356689453,30.272769927978516,//fangjia.fang.com/process/hz/2010544988.htm,3
嘉绿景苑,39777,120.10487365722656,30.277629852294922,//fangjia.fang.com/process/hz/2010516668.htm,3
西荡苑,43303,120.10940551757812,30.277101516723633,//fangjia.fang.com/process/hz/2010250146.htm,3
莲花新村西区,42946,120.11277770996094,30.278461456298828,//fangjia.fang.com/process/hz/2010183598.htm,3
紫金庭园,40637,120.10089111328125,30.277376174926758,//fangjia.fang.com/process/hz/2010063975.htm,3
丹桂公寓,44465,120.11468505859375,30.28089141845703,//fangjia.fang.com/process/hz/2010248434.htm,3
黄龙公寓,32570,120.11930847167969,30.279460906982422,//fangjia.fang.com/process/hz/2010248702.htm,3
桂花城别墅,105528,120.10166931152344,30.288944244384766,//fangjia.fang.com/process/hz/2011055890.htm,3
科技新村,38561,120.107421875,30.287004470825195,//fangjia.fang.com/process/hz/2010249128.htm,3
西房秋水苑,44089,120.11592864990234,30.279857635498047,//fangjia.fang.com/process/hz/2010007958.htm,3
文苑小区,35280,120.11792755126953,30.296916961669922,//fangjia.fang.com/process/hz/2010250108.htm,3
西鉴枫景,47477,120.11255645751953,30.27559471130371,//fangjia.fang.com/process/hz/2010064129.htm,3
颐景园文新,43009,120.10466003417969,30.286237716674805,//fangjia.fang.com/process/hz/2010574866.htm,3
城市心境,46412,120.10853576660156,30.273178100585938,//fangjia.fang.com/process/hz/2010064128.htm,3
丹枫新村,42785,120.10655975341797,30.283239364624023,//fangjia.fang.com/process/hz/2010409342.htm,3
新安嘉苑,38300,120.11090087890625,30.274980545043945,//fangjia.fang.com/process/hz/2010675278.htm,3
银桂花园,55503,120.10002136230469,30.281335830688477,//fangjia.fang.com/process/hz/2010250272.htm,3
桂花园,53766,120.1047592163086,30.28164291381836,//fangjia.fang.com/process/hz/2010248584.htm,3
香港城,40024,120.10833740234375,30.281362533569336,//fangjia.fang.com/process/hz/2010250150.htm,3
皇朝城市花园,30786,120.10166931152344,30.280235290527344,//fangjia.fang.com/process/hz/2010248662.htm,3
美都新村,40918,120.11032104492188,30.28573226928711,//fangjia.fang.com/process/hz/2010249264.htm,3
金欣公寓,39969,120.10721588134766,30.281230926513672,//fangjia.fang.com/process/hz/2010249070.htm,3
省规划局宿舍,36320,120.10681915283203,30.281307220458984,//fangjia.fang.com/process/hz/2010744938.htm,3
阳光花园,41381,120.1020736694336,30.28135108947754,//fangjia.fang.com/process/hz/2010931756.htm,3
华星路97号院,45433,120.12865447998047,30.28541374206543,//fangjia.fang.com/process/hz/2010625424.htm,3
莲花新村东区,37968,120.11314392089844,30.278560638427734,//fangjia.fang.com/process/hz/2010249146.htm,3
骆家庄东苑,19485,120.10665893554688,30.291492462158203,//fangjia.fang.com/process/hz/2010249148.htm,3
明月公寓,33956,120.11053466796875,30.282472610473633,//fangjia.fang.com/process/hz/2010249308.htm,3
世纪西溪别墅,55907,120.09976196289062,30.282167434692383,//fangjia.fang.com/process/hz/2010249866.htm,3
云桂花园,49036,120.1047134399414,30.281604766845703,//fangjia.fang.com/process/hz/2010802380.htm,3
月桂花园,46743,120.1121826171875,30.28230094909668,//fangjia.fang.com/process/hz/2011063112.htm,3
筑品金座,36959,120.11256408691406,30.274736404418945,//fangjia.fang.com/process/hz/2010933122.htm,3
西湖,42797,120.09711456298828000000,30.19940376281738300000,//fangjia.fang.com/zoushi/c0hz/a0151-b010205/,2
文鼎苑,63210,120.10147094726562,30.302040100097656,//fangjia.fang.com/process/hz/2010064400.htm,3
浙港国际酒店式公寓,27723,120.10292053222656,30.315507888793945,//fangjia.fang.com/process/hz/2010182716.htm,3
西溪诚园致诚苑,65865,120.08513641357422,30.298511505126953,//fangjia.fang.com/process/hz/2011056700.htm,3
禹洲滨之江,22010,120.12018585205078,30.15545082092285,//fangjia.fang.com/process/hz/2010182908.htm,3
浙大新村,63122,120.1327896118164,30.26697540283203,//fangjia.fang.com/process/hz/2010250316.htm,3
东日晴好,29324,120.09686279296875,30.14228630065918,//fangjia.fang.com/process/hz/2011210460.htm,3
云栖蝶谷,53043,120.10896301269531,30.182615280151367,//fangjia.fang.com/process/hz/2010064407.htm,3
弥陀寺路小区,60372,120.156005859375,30.271753311157227,//fangjia.fang.com/process/hz/2010747264.htm,3
西湖公馆公寓,23558,120.10565185546875,30.172704696655273,//fangjia.fang.com/process/hz/2010183730.htm,3
西溪天堂·悦居公寓,34410,120.09821319580078,30.27455711364746,//fangjia.fang.com/process/hz/2010183750.htm,3
荷花池头,53878,120.16609191894531,30.247373580932617,//fangjia.fang.com/process/hz/2010751222.htm,3
青芝坞,61574,120.12616729736328,30.264528274536133,//fangjia.fang.com/process/hz/2010794950.htm,3
马也美上,19807,120.08722686767578,30.152671813964844,//fangjia.fang.com/process/hz/2010182378.htm,3
鼎园九礼,35624,120.07058715820312,30.24609375,//fangjia.fang.com/process/hz/2011104290.htm,3
恒大商业中心,40118,120.11390686035156,30.165267944335938,//fangjia.fang.com/process/hz/2011257202.htm,3
金沙曲苑,34050,120.13384246826172,30.25431251525879,//fangjia.fang.com/process/hz/2010864858.htm,3
嘉和花园,22363,120.04353332519531,30.22532844543457,//fangjia.fang.com/process/hz/2011201344.htm,3
绿野春天叠翠谷,22082,120.01264190673828,30.201032638549805,//fangjia.fang.com/process/hz/2010878818.htm,3
双峰村,84633,120.12799835205078,30.240646362304688,//fangjia.fang.com/process/hz/2010828368.htm,3
四眼井,39181,120.14230346679688,30.221790313720703,//fangjia.fang.com/process/hz/2010886656.htm,3
西湖墅,0,120.10627746582031,30.172868728637695,//fangjia.fang.com/process/hz/2010182740.htm,3
西溪,43459,120.07400512695313000000,30.27461814880371100000,//fangjia.fang.com/zoushi/c0hz/a0151-b02347/,2
融创河滨之城,57790,120.0683364868164,30.303794860839844,//fangjia.fang.com/process/hz/2011141816.htm,3
西溪蝶园,49497,120.06999969482422,30.29472541809082,//fangjia.fang.com/process/hz/2010318070.htm,3
西溪里,47246,120.06536102294922,30.297229766845703,//fangjia.fang.com/process/hz/2010410422.htm,3
万科西庐,54237,120.06359100341797,30.298480987548828,//fangjia.fang.com/process/hz/2011082208.htm,3
泰禾中央广场公寓,31339,116.32867431640625,39.72039031982422,//fangjia.fang.com/process/hz/2010184108.htm,3
西溪华府,44486,120.06079864501953,30.295795440673828,//fangjia.fang.com/process/hz/2011081194.htm,3
龙湖西溪天街,32750,120.07356262207031,30.298202514648438,//fangjia.fang.com/process/hz/2010185148.htm,3
西溪九号公寓,23739,120.06486511230469,30.284704208374023,//fangjia.fang.com/process/hz/2010182596.htm,3
西溪诚园正信苑,66874,120.08495330810547,30.296911239624023,//fangjia.fang.com/process/hz/2010698554.htm,3
西溪诚园公寓,72219,120.08732604980469,30.29503631591797,//fangjia.fang.com/process/hz/2010183818.htm,3
西溪诚园守纯苑,65855,120.0862808227539,30.295440673828125,//fangjia.fang.com/process/hz/2010182932.htm,3
西溪融庄,40764,120.04621124267578,30.276159286499023,//fangjia.fang.com/process/hz/2011085818.htm,3
西溪新城市,33375,120.0649185180664,30.285171508789062,//fangjia.fang.com/process/hz/2010183840.htm,3
西溪诚园知敬苑,67069,120.08905792236328,30.293725967407227,//fangjia.fang.com/process/hz/2010182938.htm,3
华策中心公寓,24393,120.07472229003906,30.306304931640625,//fangjia.fang.com/process/hz/2010183938.htm,3
香溪,42372,120.0634765625,30.29591941833496,//fangjia.fang.com/process/hz/2010978228.htm,3
万科坤和玉泉,47497,120.07172393798828,30.24345588684082,//fangjia.fang.com/process/hz/2011183938.htm,3
富越香溪排屋,37485,120.06416320800781,30.295764923095703,//fangjia.fang.com/process/hz/2011113072.htm,3
天元西溪锋尚,20751,120.09778594970703,30.280900955200195,//fangjia.fang.com/process/hz/2010077785.htm,3
西溪融庄排屋,40240,120.0503158569336,30.28168487548828,//fangjia.fang.com/process/hz/2011088900.htm,3
坤和西溪里别墅,49326,120.06548309326172,30.29473876953125,//fangjia.fang.com/process/hz/2010931752.htm,3
西溪诚园明礼苑,59664,120.08894348144531,30.29530143737793,//fangjia.fang.com/process/hz/2010182936.htm,3
西溪逸境,38168,120.03009033203125,30.27963638305664,//fangjia.fang.com/process/hz/2011212694.htm,3
绿城西溪世纪广场公寓,26439,120.0780029296875,30.29912567138672,//fangjia.fang.com/process/hz/2010183866.htm,3
西溪路小区,55058,120.10551452636719,30.265640258789062,//fangjia.fang.com/process/hz/2010603662.htm,3
西湖家园公寓,26085,120.09571075439453,30.262807846069336,//fangjia.fang.com/process/hz/2011130812.htm,3
和庄,37788,120.07903289794922,30.26185417175293,//fangjia.fang.com/process/hz/2010978502.htm,3
华元天鹅堡酒店式公寓,24440,120.11194610595703,30.26972770690918,//fangjia.fang.com/process/hz/2010183528.htm,3
中交悦西溪别墅,41195,120.0384292602539,30.287343978881836,//fangjia.fang.com/process/hz/2011254924.htm,3
大华新天地,31097,120.04158020019531,30.290414810180664,//fangjia.fang.com/process/hz/2010886684.htm,3
黄龙综合楼,50450,120.14151000976562,30.27246856689453,//fangjia.fang.com/process/hz/2010248706.htm,3
绿城西溪深蓝公寓,24742,119.98889923095703,30.145458221435547,//fangjia.fang.com/process/hz/2010184192.htm,3
天目山路118号,46710,120.11597442626953,30.27535057067871,//fangjia.fang.com/process/hz/2010601718.htm,3
西溪名园,30087,120.06348419189453,30.258987426757812,//fangjia.fang.com/process/hz/2010250200.htm,3
钱江西溪和景,31429,120.11335754394531,30.270906448364258,//fangjia.fang.com/process/hz/2011010718.htm,3
钱江西溪和景别墅,49858,120.1129379272461,30.270641326904297,//fangjia.fang.com/process/hz/2010182910.htm,3
天目山路116号,43434,120.15498352050781,30.280107498168945,//fangjia.fang.com/process/hz/2011209912.htm,3
药物研究所宿舍,25502,120.08973693847656,30.260326385498047,//fangjia.fang.com/process/hz/2010747268.htm,3
EAC国际公寓,60591,120.14330291748047,30.28095054626465,//fangjia.fang.com/process/hz/2010937900.htm,3
公元大厦,57269,120.13790893554688,30.270366668701172,//fangjia.fang.com/process/hz/2010760138.htm,3
学军,66131,120.14926147460938000000,30.28726005554199200000,//fangjia.fang.com/zoushi/c0hz/a0151-b014412/,2
文二新村,72168,120.14961242675781,30.289020538330078,//fangjia.fang.com/process/hz/2010250024.htm,3
中大文锦苑,68778,120.15081787109375,30.28573226928711,//fangjia.fang.com/process/hz/2010007964.htm,3
下宁巷,73781,120.14863586425781,30.287841796875,//fangjia.fang.com/process/hz/2010514750.htm,3
崇文公寓,68657,120.15336608886719,30.286989212036133,//fangjia.fang.com/process/hz/2010068544.htm,3
求智弄小区,71847,120.1506118774414,30.28911781311035,//fangjia.fang.com/process/hz/2010610174.htm,3
求智巷,79790,120.15007781982422,30.289587020874023,//fangjia.fang.com/process/hz/2010515266.htm,3
上宁新村,63361,120.14984893798828,30.2830867767334,//fangjia.fang.com/process/hz/2010249946.htm,3
马塍路33号,74125,120.15349578857422,30.286714553833008,//fangjia.fang.com/process/hz/2011078820.htm,3
梅苑阁小区,48831,120.1500473022461,30.29392433166504,//fangjia.fang.com/process/hz/2010249306.htm,3
文二路21号,74602,120.15210723876953,30.28975486755371,//fangjia.fang.com/process/hz/2011072072.htm,3
马塍路11号,55180,120.15422058105469,30.28219223022461,//fangjia.fang.com/process/hz/2011077180.htm,3
文三路103号院,43027,120.15229034423828,30.28399658203125,//fangjia.fang.com/process/hz/2010755116.htm,3
马塍路13号,0,,,//fangjia.fang.com/process/hz/2010185430.htm,3
马塍路37号,0,,,//fangjia.fang.com/process/hz/2010185478.htm,3
文二路43号,65550,120.1513671875,30.28934097290039,//fangjia.fang.com/process/hz/2011078916.htm,3
武林巷36号小区,0,,,//fangjia.fang.com/process/hz/2010185436.htm,3
之江,40158,120.14014434814453000000,30.16884422302246100000,//fangjia.fang.com/zoushi/c0hz/a0151-b010776/,2
群升万国天地,24647,,,//fangjia.fang.com/process/hz/2010185506.htm,3
钱塘ONE公寓,22189,120.123779296875,30.15505027770996,//fangjia.fang.com/process/hz/2010183542.htm,3
之江九里,34072,120.10147094726562,30.17201042175293,//fangjia.fang.com/process/hz/2011030628.htm,3
嘉里云荷廷,35242,120.11080932617188,30.176639556884766,//fangjia.fang.com/process/hz/2011125774.htm,3
之江之芯,23142,120.10424041748047,30.16423988342285,//fangjia.fang.com/process/hz/2010183812.htm,3
大家之江悦,32816,120.1033935546875,30.167051315307617,//fangjia.fang.com/process/hz/2011072024.htm,3
西湖花园,36691,120.11400604248047,30.18808937072754,//fangjia.fang.com/process/hz/2010968732.htm,3
公元沐桥,26384,120.10429382324219,30.172164916992188,//fangjia.fang.com/process/hz/2010257542.htm,3
恒大水晶城,34286,,,//fangjia.fang.com/process/hz/2010185614.htm,3
九树公寓,50000,120.1151351928711,30.188249588012695,//fangjia.fang.com/process/hz/2010153508.htm,3
公元沐桥排屋,41896,120.10444641113281,30.170385360717773,//fangjia.fang.com/process/hz/2011103318.htm,3
之江九里别墅,120532,120.10105895996094,30.171483993530273,//fangjia.fang.com/process/hz/2011131388.htm,3
转塘,37774,120.08835601806641000000,30.14291954040527300000,//fangjia.fang.com/zoushi/c0hz/a0151-b05137/,2
和昌云潮公寓,24008,120.11456298828125,30.177932739257812,//fangjia.fang.com/process/hz/2010184034.htm,3
新帝朗郡,26423,120.07469940185547,30.169397354125977,//fangjia.fang.com/process/hz/2010290062.htm,3
绿城之江1号,33827,120.0784912109375,30.16876983642578,//fangjia.fang.com/process/hz/2010684698.htm,3
金街美地公寓,22565,120.08584594726562,30.152570724487305,//fangjia.fang.com/process/hz/2011112510.htm,3
阳明谷,71127,120.0921630859375,30.175447463989258,//fangjia.fang.com/process/hz/2010064413.htm,3
篁外,28091,120.06832885742188,30.1495304107666,//fangjia.fang.com/process/hz/2010708320.htm,3
九溪玫瑰园别墅,110793,120.11228942871094,30.188215255737305,//fangjia.fang.com/process/hz/2010007858.htm,3
中天九溪诚品,35499,120.10464477539062,30.168367385864258,//fangjia.fang.com/process/hz/2011255672.htm,3
禹洲滨天地,21263,,,//fangjia.fang.com/process/hz/2010185494.htm,3
祥生云溪新语,33631,120.1029281616211,30.169326782226562,//fangjia.fang.com/process/hz/2011273866.htm,3
融科瑷骊山,29602,120.07135772705078,30.148466110229492,//fangjia.fang.com/process/hz/2011076654.htm,3
南都西湖高尔夫别墅,56243,120.07711029052734,30.178855895996094,//fangjia.fang.com/process/hz/2010064033.htm,3
云溪香山,27094,120.07938385009766,30.155494689941406,//fangjia.fang.com/process/hz/2010150342.htm,3
贝利云栖中心公寓,22500,120.11695098876953,30.18696403503418,//fangjia.fang.com/process/hz/2010183728.htm,3
中天之江诚品,34221,120.0750961303711,30.14975929260254,//fangjia.fang.com/process/hz/2011117826.htm,3
绿城云栖玫瑰园别墅,123648,120.08139038085938,30.174646377563477,//fangjia.fang.com/process/hz/2011079492.htm,3
星云公寓loft,21511,120.19549560546875,30.346790313720703,//fangjia.fang.com/process/hz/2010183726.htm,3
天阳云筑,30604,120.07190704345703,30.14995574951172,//fangjia.fang.com/process/hz/2010973252.htm,3
赞成岭上花苑,26870,120.0662612915039,30.151329040527344,//fangjia.fang.com/process/hz/2010151942.htm,3
玖珑山,28447,120.0672836303711,30.149166107177734,//fangjia.fang.com/process/hz/2011058230.htm,3
篁外山庄,30080,120.06836700439453,30.149545669555664,//fangjia.fang.com/process/hz/2010182560.htm,3
梧桐燕庐,31370,120.09841918945312,30.141460418701172,//fangjia.fang.com/process/hz/2010860488.htm,3
新西湖花园别墅,51516,120.07826232910156,30.17884063720703,//fangjia.fang.com/process/hz/2010990072.htm,3
丽晶美庐别墅,80225,120.10140228271484,30.177324295043945,//fangjia.fang.com/process/hz/2011283420.htm,3
梦湖山庄公寓,25785,120.08214569091797,30.176895141601562,//fangjia.fang.com/process/hz/2010249302.htm,3
东方苑,41674,120.14603424072266,30.20538330078125,//fangjia.fang.com/process/hz/2010545070.htm,3
绿城云栖玫瑰园,109562,120.08338165283203,30.175317764282227,//fangjia.fang.com/process/hz/2010860412.htm,3
云栖蝶谷别墅,90692,120.13383483886719,30.19987678527832,//fangjia.fang.com/process/hz/2010406134.htm,3
云溪印象,19019,120.07839965820312,30.15329360961914,//fangjia.fang.com/process/hz/2010877076.htm,3
樱花小筑,31111,120.09709167480469,30.315906524658203,//fangjia.fang.com/process/hz/2010068300.htm,3
新帝朗郡别墅,27655,120.07381439208984,30.170663833618164,//fangjia.fang.com/process/hz/2010183996.htm,3
枫丹白露,33526,120.08296966552734,30.180313110351562,//fangjia.fang.com/process/hz/2010064042.htm,3
梦湖山庄,32367,120.08724975585938,30.17133331298828,//fangjia.fang.com/process/hz/2010577064.htm,3
美上商业中心,20729,120.08789825439453,30.152820587158203,//fangjia.fang.com/process/hz/2010184326.htm,3
润和山庄,41378,120.16270446777344,30.209203720092773,//fangjia.fang.com/process/hz/2010064245.htm,3
新西湖花园,28415,120.07826232910156,30.17884063720703,//fangjia.fang.com/process/hz/2010064064.htm,3
万美摩登中心公寓,19146,120.07623291015625,30.14898109436035,//fangjia.fang.com/process/hz/2010184064.htm,3
钱江之江新天地,18396,120.09479522705078,30.13718032836914,//fangjia.fang.com/process/hz/2010989468.htm,3
赞成岭上排屋,27807,120.0662612915039,30.151329040527344,//fangjia.fang.com/process/hz/2011104594.htm,3
景月湾排屋,40436,120.08956146240234,30.17439079284668,//fangjia.fang.com/process/hz/2010515394.htm,3
江干,33100,120.21150970458984,30.26323699951172,//fangjia.fang.com/zoushi/c0hz/a0153/,1
采荷,46815,120.20437622070313000000,30.26118087768554700000,//fangjia.fang.com/zoushi/c0hz/a0153-b01267/,2
采荷新村,48080,120.19943237304688,30.259002685546875,//fangjia.fang.com/process/hz/2010245862.htm,3
双菱新村,47854,120.20061492919922,30.261394500732422,//fangjia.fang.com/process/hz/2010251662.htm,3
凯旋门,61421,120.19755554199219,30.261877059936523,//fangjia.fang.com/process/hz/2010924816.htm,3
商教苑,47981,120.19795227050781,30.252092361450195,//fangjia.fang.com/process/hz/2010409824.htm,3
采荷玉荷,47183,120.20608520507812,30.261117935180664,//fangjia.fang.com/process/hz/2010416116.htm,3
采荷芙蓉,49410,120.20177459716797,30.259193420410156,//fangjia.fang.com/process/hz/2010410386.htm,3
紫晶商务城,19586,120.19808959960938,30.264467239379883,//fangjia.fang.com/process/hz/2010157902.htm,3
采荷洁莲,48194,120.20268249511719,30.25898551940918,//fangjia.fang.com/process/hz/2010410384.htm,3
采荷东区,44791,120.21022033691406,30.260576248168945,//fangjia.fang.com/process/hz/2010251264.htm,3
红菱新村,48782,120.20679473876953,30.26215171813965,//fangjia.fang.com/process/hz/2010251384.htm,3
华家池校区家属宿舍,43396,120.19886016845703,30.273693084716797,//fangjia.fang.com/process/hz/2011087542.htm,3
采荷绿萍,40269,120.20571899414062,30.263654708862305,//fangjia.fang.com/process/hz/2010410346.htm,3
采荷人家,47900,120.21356964111328,30.26156997680664,//fangjia.fang.com/process/hz/2010409990.htm,3
天阳凤起,54047,120.22372436523438,30.27073860168457,//fangjia.fang.com/process/hz/2011224274.htm,3
采荷翠柳,48357,120.2031478881836,30.26150131225586,//fangjia.fang.com/process/hz/2010409350.htm,3
清泰小区,47707,120.19849395751953,30.254430770874023,//fangjia.fang.com/process/hz/2010246624.htm,3
采荷青荷苑,47247,120.20378112792969,30.256057739257812,//fangjia.fang.com/process/hz/2010409944.htm,3
建电新村,49470,120.19818115234375,30.262474060058594,//fangjia.fang.com/process/hz/2010247544.htm,3
采荷紫藕,49005,120.20362091064453,30.262775421142578,//fangjia.fang.com/process/hz/2010416114.htm,3
花园铁路新村,48718,120.19718933105469,30.25787353515625,//fangjia.fang.com/process/hz/2010251386.htm,3
三新家园,30039,120.21056365966797,30.267961502075195,//fangjia.fang.com/process/hz/2010251744.htm,3
静怡花苑,42796,120.20808410644531,30.24916648864746,//fangjia.fang.com/process/hz/2010611112.htm,3
采荷金谷,46057,120.20278930664062,30.259258270263672,//fangjia.fang.com/process/hz/2010410382.htm,3
采荷青莼,47338,120.20661926269531,30.25935935974121,//fangjia.fang.com/process/hz/2010416118.htm,3
青春都市公寓,51632,120.20564270019531,30.265396118164062,//fangjia.fang.com/process/hz/2010141502.htm,3
新城国际花园,53695,120.22447967529297,30.261646270751953,//fangjia.fang.com/process/hz/2010611640.htm,3
采荷路35号,48306,120.20010375976562,30.25728988647461,//fangjia.fang.com/process/hz/2010828380.htm,3
思安坊,36741,120.20621490478516,30.247751235961914,//fangjia.fang.com/process/hz/2010246826.htm,3
静安花园,45603,120.20785522460938,30.249256134033203,//fangjia.fang.com/process/hz/2010007952.htm,3
采荷小区,44685,120.20188903808594,30.25975799560547,//fangjia.fang.com/process/hz/2010245902.htm,3
居安坊,37613,120.20768737792969,30.246490478515625,//fangjia.fang.com/process/hz/2010251422.htm,3
元丰庆春御府,54421,120.1990966796875,30.26296043395996,//fangjia.fang.com/process/hz/2010926830.htm,3
采荷支路小区,41470,120.205078125,30.255258560180664,//fangjia.fang.com/process/hz/2010828398.htm,3
采荷路17号,39971,120.20391082763672,30.25749397277832,//fangjia.fang.com/process/hz/2010828428.htm,3
采荷路33号,59732,120.2010498046875,30.25674057006836,//fangjia.fang.com/process/hz/2010828472.htm,3
采荷路14号,33869,120.20355987548828,30.25792121887207,//fangjia.fang.com/process/hz/2011026112.htm,3
邮政职工公寓,60912,120.19608306884766,30.257164001464844,//fangjia.fang.com/process/hz/2010252024.htm,3
采荷南苑,44716,120.21372985839844,30.25615692138672,//fangjia.fang.com/process/hz/2010251266.htm,3
采荷二区,54512,120.20468139648438,30.262842178344727,//fangjia.fang.com/process/hz/2010416142.htm,3
采荷路47号,47040,120.19762420654297,30.257434844970703,//fangjia.fang.com/process/hz/2010828394.htm,3
城东新城,35286,120.22984313964844000000,30.30041313171386700000,//fangjia.fang.com/zoushi/c0hz/a0153-b014178/,2
金色黎明,41526,120.22901153564453,30.31325912475586,//fangjia.fang.com/process/hz/2010879342.htm,3
龙湖金地商置都会风华,40523,120.22711944580078,30.306020736694336,//fangjia.fang.com/process/hz/2010185122.htm,3
滨江德信东方星城,41553,120.22166442871094,30.308408737182617,//fangjia.fang.com/process/hz/2011283098.htm,3
德信东望,39182,120.23382568359375,30.296937942504883,//fangjia.fang.com/process/hz/2011074850.htm,3
东渡酩悦,32333,120.22506713867188,30.298826217651367,//fangjia.fang.com/process/hz/2010184794.htm,3
华润中央车站广场,28301,120.22193908691406,30.300159454345703,//fangjia.fang.com/process/hz/2010185230.htm,3
远洋心里,35493,120.2536392211914,30.312744140625,//fangjia.fang.com/process/hz/2011050452.htm,3
万科公园大道,41798,120.22123718261719,30.316219329833984,//fangjia.fang.com/process/hz/2011106922.htm,3
世茂钱塘天誉,39992,120.21733856201172,30.31159019470215,//fangjia.fang.com/process/hz/2010183548.htm,3
天阳文晖,41172,120.2082290649414,30.307119369506836,//fangjia.fang.com/process/hz/2010182338.htm,3
天阳尚城国际,39361,120.2052230834961,30.30808448791504,//fangjia.fang.com/process/hz/2011077392.htm,3
紫台,35298,120.25164031982422,30.312589645385742,//fangjia.fang.com/process/hz/2011081696.htm,3
德信浙旅东宸,41714,120.22461700439453,30.304582595825195,//fangjia.fang.com/process/hz/2011192488.htm,3
红街天城公寓,17687,120.21431732177734,30.297983169555664,//fangjia.fang.com/process/hz/2011078508.htm,3
中凯东方红街,37755,120.2130126953125,30.30036163330078,//fangjia.fang.com/process/hz/2010297662.htm,3
广宇东港空间,32544,,,//fangjia.fang.com/process/hz/2010185562.htm,3
天城府,40958,120.20330810546875,30.303991317749023,//fangjia.fang.com/process/hz/2011182634.htm,3
梧桐语,34452,120.25328063964844,30.318279266357422,//fangjia.fang.com/process/hz/2011088948.htm,3
德信杭州之翼公寓,26941,120.22967529296875,30.30096435546875,//fangjia.fang.com/process/hz/2010183716.htm,3
草庄,40360,120.22472381591797,30.315601348876953,//fangjia.fang.com/process/hz/2010928840.htm,3
恒祺克拉天玺,25810,120.21998596191406,30.302745819091797,//fangjia.fang.com/process/hz/2010182486.htm,3
三湘印象森林海尚,40181,120.23365020751953,30.30253028869629,//fangjia.fang.com/process/hz/2010184106.htm,3
交通晓时代,35197,120.25019073486328,30.307044982910156,//fangjia.fang.com/process/hz/2011191716.htm,3
东港嘉苑,33534,120.21453094482422,30.307092666625977,//fangjia.fang.com/process/hz/2011061820.htm,3
东方御府,50872,120.23483276367188,30.27965545654297,//fangjia.fang.com/process/hz/2011060642.htm,3
东港嘉苑三区,33150,120.21858978271484,30.304433822631836,//fangjia.fang.com/process/hz/2011061816.htm,3
铁建国际花园,35316,120.25094604492188,30.318084716796875,//fangjia.fang.com/process/hz/2011081540.htm,3
新和嘉苑,35165,120.22624206542969,30.298076629638672,//fangjia.fang.com/process/hz/2011087702.htm,3
淮矿东元府,38240,120.23344421386719,30.293476104736328,//fangjia.fang.com/process/hz/2011243172.htm,3
保利中央公馆,50377,120.2133560180664,30.282203674316406,//fangjia.fang.com/process/hz/2011227854.htm,3
越秀亲爱里,31693,120.26353454589844,30.31056022644043,//fangjia.fang.com/process/hz/2010182806.htm,3
华润置地中央车站广场,28325,120.22356414794922,30.29898452758789,//fangjia.fang.com/process/hz/2010184372.htm,3
杭州港龙城公寓,28189,120.23267364501953,30.30040168762207,//fangjia.fang.com/process/hz/2010184080.htm,3
远洋万和四季,40141,120.2232666015625,30.306373596191406,//fangjia.fang.com/process/hz/2011250770.htm,3
招商Ipark,34972,,,//fangjia.fang.com/process/hz/2010185456.htm,3
天庐苑,33394,120.20963287353516,30.302431106567383,//fangjia.fang.com/process/hz/2010251784.htm,3
紫玉福邸,40329,120.20685577392578,30.302331924438477,//fangjia.fang.com/process/hz/2011089302.htm,3
浙商国际中心,22763,,,//fangjia.fang.com/process/hz/2010185136.htm,3
东港嘉苑二区,33548,120.21585845947266,30.305875778198242,//fangjia.fang.com/process/hz/2011061818.htm,3
新风丽都,34652,120.21244049072266,30.296802520751953,//fangjia.fang.com/process/hz/2011075612.htm,3
丁桥,26797,120.22926330566406000000,30.35420227050781300000,//fangjia.fang.com/zoushi/c0hz/a0153-b02394/,2
罗兰香谷,24308,120.24403381347656,30.37834358215332,//fangjia.fang.com/process/hz/2011104608.htm,3
阳光逸城,25599,120.24508666992188,30.35531234741211,//fangjia.fang.com/process/hz/2011039292.htm,3
北城枫景园,25572,120.24649047851562,30.36829948425293,//fangjia.fang.com/process/hz/2011121040.htm,3
滨江同协金座公寓,27286,120.21878814697266,30.34555435180664,//fangjia.fang.com/process/hz/2010184266.htm,3
丁桥兰苑,23175,120.2405014038086,30.353015899658203,//fangjia.fang.com/process/hz/2010388904.htm,3
上东臻品,30919,120.23619079589844,30.36374282836914,//fangjia.fang.com/process/hz/2011048106.htm,3
新城红郡,25138,120.23524475097656,30.377296447753906,//fangjia.fang.com/process/hz/2011135524.htm,3
中兴久睦苑,24693,120.2414779663086,30.370634078979492,//fangjia.fang.com/process/hz/2011005346.htm,3
瑞立辰秀嘉园,23715,120.24872589111328,30.36135482788086,//fangjia.fang.com/process/hz/2010302542.htm,3
联合格里,29494,120.24127197265625,30.364498138427734,//fangjia.fang.com/process/hz/2010202062.htm,3
云锦城,24996,120.23688507080078,30.377758026123047,//fangjia.fang.com/process/hz/2011000088.htm,3
上东名筑,31412,120.23223876953125,30.367420196533203,//fangjia.fang.com/process/hz/2011075960.htm,3
名景台,31162,120.21961975097656,30.349950790405273,//fangjia.fang.com/process/hz/2011098434.htm,3
新城湾上风华,23706,120.23194885253906,30.374252319335938,//fangjia.fang.com/process/hz/2010182946.htm,3
玺之湾,28098,120.23492431640625,30.351652145385742,//fangjia.fang.com/process/hz/2010877576.htm,3
阳光城翡丽湾,29667,120.21243286132812,30.352813720703125,//fangjia.fang.com/process/hz/2011156028.htm,3
龙湖武林九里,32656,120.22352600097656,30.34560203552246,//fangjia.fang.com/process/hz/2011282876.htm,3
长睦邻里人家,25618,120.2398910522461,30.365774154663086,//fangjia.fang.com/process/hz/2010326544.htm,3
郡枫绿园,26638,120.22624206542969,30.347822189331055,//fangjia.fang.com/process/hz/2011250372.htm,3
中豪四季公馆,31511,120.24340057373047,30.357553482055664,//fangjia.fang.com/process/hz/2010927500.htm,3
丁桥颐景园,29495,120.23654174804688,30.35934066772461,//fangjia.fang.com/process/hz/2010826858.htm,3
金地格林格林,26332,120.24666595458984,30.377391815185547,//fangjia.fang.com/process/hz/2011111144.htm,3
天阳观筑,29261,120.2428970336914,30.36533546447754,//fangjia.fang.com/process/hz/2010471582.htm,3
昆仑天籁,31455,120.24275970458984,30.360349655151367,//fangjia.fang.com/process/hz/2010932162.htm,3
上东领地,30578,120.2333755493164,30.362667083740234,//fangjia.fang.com/process/hz/2011080746.htm,3
冠宇隽园,29240,120.23966217041016,30.357120513916016,//fangjia.fang.com/process/hz/2010557342.htm,3
北城铭苑,28265,120.23882293701172,30.351659774780273,//fangjia.fang.com/process/hz/2011005338.htm,3
东承府,30581,120.23468017578125,30.366254806518555,//fangjia.fang.com/process/hz/2011060408.htm,3
置鼎明珠1号,21526,120.23650360107422,30.358173370361328,//fangjia.fang.com/process/hz/2011178392.htm,3
上东城,30091,120.23522186279297,30.366376876831055,//fangjia.fang.com/process/hz/2010362628.htm,3
丁桥景园,23656,120.23909759521484,30.355497360229492,//fangjia.fang.com/process/hz/2011104116.htm,3
美都雅苑,23100,120.24849700927734,30.363874435424805,//fangjia.fang.com/process/hz/2010315062.htm,3
城基后珠农港苑,25859,120.24496459960938,30.362070083618164,//fangjia.fang.com/process/hz/2011005362.htm,3
丁兰商业中心,10989,120.23793029785156,30.359390258789062,//fangjia.fang.com/process/hz/2010428622.htm,3
天阳晴朗,33734,120.23103332519531,30.36153793334961,//fangjia.fang.com/process/hz/2011114704.htm,3
卓越蔚蓝领秀,28466,120.24617767333984,30.3736515045166,//fangjia.fang.com/process/hz/2011206756.htm,3
华天苑,24192,120.25149536132812,30.369359970092773,//fangjia.fang.com/process/hz/2011250994.htm,3
远洋香奈,30212,120.22545623779297,30.35027313232422,//fangjia.fang.com/process/hz/2011210196.htm,3
广大融城印象,28750,120.23286437988281,30.363910675048828,//fangjia.fang.com/process/hz/2011123154.htm,3
柏悦公馆,16408,120.2338638305664,30.367570877075195,//fangjia.fang.com/process/hz/2010183864.htm,3
华家池,40403,120.19909667968750000000,30.26957130432128900000,//fangjia.fang.com/zoushi/c0hz/a0153-b022728/,2
南肖埠北景西苑,40652,120.19851684570312,30.26698112487793,//fangjia.fang.com/process/hz/2010247784.htm,3
南肖埠庆春苑,41866,120.19873046875,30.265174865722656,//fangjia.fang.com/process/hz/2010007752.htm,3
南肖埠华家池,40743,120.19941711425781,30.266498565673828,//fangjia.fang.com/process/hz/2010416198.htm,3
金秋花园,37018,120.2056655883789,30.270450592041016,//fangjia.fang.com/process/hz/2010247584.htm,3
凯林巷小区,39107,120.19969177246094,30.270872116088867,//fangjia.fang.com/process/hz/2010602856.htm,3
凯旋路小区,43983,120.19706726074219,30.266584396362305,//fangjia.fang.com/process/hz/2010605698.htm,3
广茵大厦,18972,120.19969177246094,30.268699645996094,//fangjia.fang.com/process/hz/2010624082.htm,3
南肖埠庆和苑,45130,120.20044708251953,30.26427459716797,//fangjia.fang.com/process/hz/2010650558.htm,3
紫玉公馆,41278,120.19719696044922,30.275516510009766,//fangjia.fang.com/process/hz/2010786632.htm,3
农业厅第三住宅区,45782,120.20259857177734,30.27100372314453,//fangjia.fang.com/process/hz/2010619862.htm,3
浙报宿舍,44191,120.1989517211914,30.270315170288086,//fangjia.fang.com/process/hz/2010631318.htm,3
凯旋路174号,52064,120.19742584228516,30.26691246032715,//fangjia.fang.com/process/hz/2010820338.htm,3
庆春东路62号院,34450,120.20103454589844,30.263925552368164,//fangjia.fang.com/process/hz/2010881942.htm,3
笕桥,30312,120.22791290283203000000,30.32254600524902300000,//fangjia.fang.com/zoushi/c0hz/a0153-b02395/,2
龙湖大家九龙仓璟宸府,38005,120.23871612548828,30.31336784362793,//fangjia.fang.com/process/hz/2010184176.htm,3
曙光之城,42169,120.2140884399414,30.30994987487793,//fangjia.fang.com/process/hz/2010883172.htm,3
宋都时间国际公寓,20311,116.45645141601562,39.96854019165039,//fangjia.fang.com/process/hz/2010182660.htm,3
玉兰公寓,43691,120.20734405517578,30.297761917114258,//fangjia.fang.com/process/hz/2010300262.htm,3
原筑壹号,27173,120.24049377441406,30.314374923706055,//fangjia.fang.com/process/hz/2010680820.htm,3
浅草名苑,31281,120.22553253173828,30.31854248046875,//fangjia.fang.com/process/hz/2010136262.htm,3
中旅·城仕公馆,30937,120.22236633300781,30.353670120239258,//fangjia.fang.com/process/hz/2011130784.htm,3
融创玖樟台,35538,120.21717834472656,30.31584358215332,//fangjia.fang.com/process/hz/2010182594.htm,3
东方丽都花苑,41546,120.2067642211914,30.298248291015625,//fangjia.fang.com/process/hz/2010525062.htm,3
原筑壹号公寓,25000,120.2405776977539,30.31437110900879,//fangjia.fang.com/process/hz/2010183770.htm,3
大世界五金城,11667,120.22933197021484,30.339536666870117,//fangjia.fang.com/process/hz/2010911758.htm,3
丁兰花苑,15167,120.23143768310547,30.356435775756836,//fangjia.fang.com/process/hz/2011205298.htm,3
赵家花苑,27436,120.22817993164062,30.362403869628906,//fangjia.fang.com/process/hz/2011236510.htm,3
笕桥花苑,26897,120.22754669189453,30.31999969482422,//fangjia.fang.com/process/hz/2011107468.htm,3
天成路武警宿舍,32815,120.21073150634766,30.29288101196289,//fangjia.fang.com/process/hz/2010828346.htm,3
万事利公寓,41212,120.22789001464844,30.33019256591797,//fangjia.fang.com/process/hz/2010251866.htm,3
原筑壹号排屋,24452,120.23944854736328,30.314239501953125,//fangjia.fang.com/process/hz/2011086892.htm,3
金沙湖,23675,120.33206939697266000000,30.31533050537109400000,//fangjia.fang.com/zoushi/c0hz/a0153-b015160/,2
龙湖滟澜山,36091,120.33319854736328,30.318674087524414,//fangjia.fang.com/process/hz/2010913560.htm,3
铭和苑,23751,120.3396987915039,30.324321746826172,//fangjia.fang.com/process/hz/2010367906.htm,3
柠檬郡,29076,120.32742309570312,30.30338478088379,//fangjia.fang.com/process/hz/2010359808.htm,3
晓城天地,11964,120.33869171142578,30.31541633605957,//fangjia.fang.com/process/hz/2011091226.htm,3
金沙湖1号公寓,21841,120.33653259277344,30.314605712890625,//fangjia.fang.com/process/hz/2010870614.htm,3
德信早城,37531,120.3362045288086,30.320077896118164,//fangjia.fang.com/process/hz/2010705140.htm,3
四季广场,16087,120.34466552734375,30.324045181274414,//fangjia.fang.com/process/hz/2011171860.htm,3
中豪七格,18848,120.32909393310547,30.305017471313477,//fangjia.fang.com/process/hz/2011191768.htm,3
东岸嘉园,29458,120.33634185791016,30.308469772338867,//fangjia.fang.com/process/hz/2011273756.htm,3
铭都雅苑,30056,120.34134674072266,30.312820434570312,//fangjia.fang.com/process/hz/2011138186.htm,3
御观邸,41986,120.33715057373047,30.313940048217773,//fangjia.fang.com/process/hz/2010927294.htm,3
名城湖左岸,40926,120.3281021118164,30.318941116333008,//fangjia.fang.com/process/hz/2010696818.htm,3
泰美国际大厦,20274,,,//fangjia.fang.com/process/hz/2010185322.htm,3
德信中外公寓,36733,120.337158203125,30.31940460205078,//fangjia.fang.com/process/hz/2010874244.htm,3
松合幸福雅苑,27750,120.32231140136719,30.321277618408203,//fangjia.fang.com/process/hz/2011268884.htm,3
金沙阳光,26477,120.34071350097656,30.307878494262695,//fangjia.fang.com/process/hz/2010779104.htm,3
锦湖家园,28978,120.33332061767578,30.312406539916992,//fangjia.fang.com/process/hz/2011077592.htm,3
中沙金座,11736,120.33712768554688,30.31219482421875,//fangjia.fang.com/process/hz/2011064900.htm,3
头格江景家园一区,25607,120.31238555908203,30.30643653869629,//fangjia.fang.com/process/hz/2010185444.htm,3
东方铭楼,16905,120.33911895751953,30.314363479614258,//fangjia.fang.com/process/hz/2011069276.htm,3
金沙国际公寓,15836,120.32537078857422,30.325075149536133,//fangjia.fang.com/process/hz/2011087592.htm,3
东部国际商务中心公寓,15883,120.32998657226562,30.316179275512695,//fangjia.fang.com/process/hz/2011079468.htm,3
智格豪城,11797,120.33616638183594,30.30138397216797,//fangjia.fang.com/process/hz/2011127526.htm,3
龙湖滟澜星座公寓,18959,120.33279418945312,30.31473731994629,//fangjia.fang.com/process/hz/2010184288.htm,3
财通中心,18837,120.34127044677734,30.315065383911133,//fangjia.fang.com/process/hz/2010991582.htm,3
新沙家园,26355,120.33979034423828,30.322586059570312,//fangjia.fang.com/process/hz/2011072070.htm,3
东沙铭城,12025,120.3404312133789,30.310216903686523,//fangjia.fang.com/process/hz/2011052114.htm,3
湖景居,29757,120.3220443725586,30.309850692749023,//fangjia.fang.com/process/hz/2010182260.htm,3
新元金沙城,27250,120.34005737304688,30.320138931274414,//fangjia.fang.com/process/hz/2011122352.htm,3
幸福家园,19416,120.32221984863281,30.304075241088867,//fangjia.fang.com/process/hz/2011051508.htm,3
高沙百盛苑,25028,120.34193420410156,30.325157165527344,//fangjia.fang.com/process/hz/2011042148.htm,3
湾南德盛东苑,23704,,,//fangjia.fang.com/process/hz/2010185492.htm,3
金沙家园,28560,120.34010314941406,30.322641372680664,//fangjia.fang.com/process/hz/2011122374.htm,3
松合幸福里,20373,120.32357788085938,30.32433319091797,//fangjia.fang.com/process/hz/2010717554.htm,3
新怡家园,23041,120.3334732055664,30.30267906188965,//fangjia.fang.com/process/hz/2011004098.htm,3
北苑大厦,18412,120.33924865722656,30.311565399169922,//fangjia.fang.com/process/hz/2011089066.htm,3
东海金沙T台,12460,120.32779693603516,30.301713943481445,//fangjia.fang.com/process/hz/2011130452.htm,3
东海橙对,22651,120.32644653320312,30.30316925048828,//fangjia.fang.com/process/hz/2011206362.htm,3
华沙公寓,18415,120.33859252929688,30.307828903198242,//fangjia.fang.com/process/hz/2011030134.htm,3
松合时代商城公寓,38493,120.3192138671875,30.320762634277344,//fangjia.fang.com/process/hz/2011209186.htm,3
景芳,39028,120.21497344970703000000,30.27353096008300800000,//fangjia.fang.com/zoushi/c0hz/a0153-b05140/,2
新城时代广场,23181,120.21368408203125,30.269929885864258,//fangjia.fang.com/process/hz/2010356466.htm,3
景芳三区,38576,120.21065521240234,30.275846481323242,//fangjia.fang.com/process/hz/2010251428.htm,3
景芳六区,38445,120.21420288085938,30.27744483947754,//fangjia.fang.com/process/hz/2010251434.htm,3
景芳五区,37621,120.21865844726562,30.27466583251953,//fangjia.fang.com/process/hz/2010251432.htm,3
景芳四区,38073,120.21308135986328,30.27815055847168,//fangjia.fang.com/process/hz/2010580908.htm,3
景芳二区,40132,120.20916748046875,30.2755184173584,//fangjia.fang.com/process/hz/2010251426.htm,3
景芳一区,39050,120.21222686767578,30.273147583007812,//fangjia.fang.com/process/hz/2010251424.htm,3
中央公馆,49358,120.2133560180664,30.282175064086914,//fangjia.fang.com/process/hz/2011260736.htm,3
景芳新五区,39069,120.21573638916016,30.27559471130371,//fangjia.fang.com/process/hz/2010410092.htm,3
景芳水湘苑,37229,120.21795654296875,30.27741813659668,//fangjia.fang.com/process/hz/2010559926.htm,3
东润枫华,51731,120.22425079345703,30.277149200439453,//fangjia.fang.com/process/hz/2010761460.htm,3
景芳东区,38241,120.22126770019531,30.274656295776367,//fangjia.fang.com/process/hz/2010251436.htm,3
中豪湘座,26642,120.2192611694336,30.280134201049805,//fangjia.fang.com/process/hz/2010467022.htm,3
景苑公寓,36539,120.21459197998047,30.27574920654297,//fangjia.fang.com/process/hz/2010410464.htm,3
广景苑,47487,120.21166229248047,30.272008895874023,//fangjia.fang.com/process/hz/2010111180.htm,3
东城印象,52273,120.21479797363281,30.2791748046875,//fangjia.fang.com/process/hz/2010686698.htm,3
水湘人家,33185,120.2217025756836,30.280471801757812,//fangjia.fang.com/process/hz/2010624070.htm,3
省水利厅宿舍,43922,120.20482635498047,30.271808624267578,//fangjia.fang.com/process/hz/2010821582.htm,3
景芳新二区,51303,120.21101379394531,30.275312423706055,//fangjia.fang.com/process/hz/2010576872.htm,3
秋涛北路小区,38590,120.20665740966797,30.277280807495117,//fangjia.fang.com/process/hz/2010615630.htm,3
三叉社区,44985,120.20635223388672,30.27103614807129,//fangjia.fang.com/process/hz/2010251584.htm,3
三叉新村二区,38922,120.20831298828125,30.268495559692383,//fangjia.fang.com/process/hz/2010251586.htm,3
水湘公寓,32713,120.22069549560547,30.28000259399414,//fangjia.fang.com/process/hz/2010251742.htm,3
五福新村,32805,120.21353149414062,30.277687072753906,//fangjia.fang.com/process/hz/2010251830.htm,3
五福一苑,32828,120.22238159179688,30.267629623413086,//fangjia.fang.com/process/hz/2010872080.htm,3
五福二苑,32807,120.22093963623047,30.26797866821289,//fangjia.fang.com/process/hz/2011176284.htm,3
新塘路小区,32815,120.214111328125,30.27723503112793,//fangjia.fang.com/process/hz/2010873896.htm,3
新塘家园东区,36446,120.21990203857422,30.281818389892578,//fangjia.fang.com/process/hz/2011122248.htm,3
新塘家园西区,46846,120.21620178222656,30.28017234802246,//fangjia.fang.com/process/hz/2011141496.htm,3
九堡,28279,120.27463531494141000000,30.30530738830566400000,//fangjia.fang.com/zoushi/c0hz/a0153-b02392/,2
璞玉公馆,22356,120.28834533691406,30.32245635986328,//fangjia.fang.com/process/hz/2010183634.htm,3
相江公寓,32107,120.29092407226562,30.305313110351562,//fangjia.fang.com/process/hz/2010767100.htm,3
悦麒美寓,34913,120.28543090820312,30.302284240722656,//fangjia.fang.com/process/hz/2010777622.htm,3
多立方,30345,120.27261352539062,30.32726287841797,//fangjia.fang.com/process/hz/2010673218.htm,3
泊林印象,32672,120.29304504394531,30.312578201293945,//fangjia.fang.com/process/hz/2010873994.htm,3
阳光国际,32509,120.28059387207031,30.301305770874023,//fangjia.fang.com/process/hz/2010344264.htm,3
招商雍和府,34302,120.25492858886719,30.305917739868164,//fangjia.fang.com/process/hz/2010182270.htm,3
鑫运时代金座,20869,120.27901458740234,30.3139591217041,//fangjia.fang.com/process/hz/2011082100.htm,3
丽江公寓,36630,120.28809356689453,30.303638458251953,//fangjia.fang.com/process/hz/2010295622.htm,3
金雅苑,26512,120.2885971069336,30.313173294067383,//fangjia.fang.com/process/hz/2011054282.htm,3
蓝桥名苑,24091,120.28334045410156,30.3095645904541,//fangjia.fang.com/process/hz/2010166542.htm,3
新江花园,24671,120.27954864501953,30.30966567993164,//fangjia.fang.com/process/hz/2010251904.htm,3
滨江铂金海岸,34854,120.28997039794922,30.301931381225586,//fangjia.fang.com/process/hz/2010182408.htm,3
九润公寓,30225,120.2752685546875,30.331579208374023,//fangjia.fang.com/process/hz/2010860998.htm,3
罗兰春天,29795,120.27709197998047,30.33225440979004,//fangjia.fang.com/process/hz/2010818828.htm,3
泊林公寓,31501,120.29022979736328,30.308645248413086,//fangjia.fang.com/process/hz/2010362582.htm,3
魅力之城,29807,120.26348114013672,30.32617950439453,//fangjia.fang.com/process/hz/2010228142.htm,3
海棠公寓,31808,120.26800537109375,30.323881149291992,//fangjia.fang.com/process/hz/2010698898.htm,3
招商雍华府,36424,120.2564468383789,30.309093475341797,//fangjia.fang.com/process/hz/2011125606.htm,3
左邻右舍,29610,120.28864288330078,30.31085205078125,//fangjia.fang.com/process/hz/2010179464.htm,3
红苹果,26625,120.29093170166016,30.308414459228516,//fangjia.fang.com/process/hz/2010115081.htm,3
世茂东壹号,33167,120.25344848632812,30.30811309814453,//fangjia.fang.com/process/hz/2011103898.htm,3
天阳九筑,33562,120.26564025878906,30.328128814697266,//fangjia.fang.com/process/hz/2010862778.htm,3
金地玖峯汇,30962,120.2779541015625,30.32707405090332,//fangjia.fang.com/process/hz/2010184202.htm,3
九月庭院,27127,120.2931900024414,30.309934616088867,//fangjia.fang.com/process/hz/2010155582.htm,3
昆盛肖邦,28118,120.27864074707031,30.330215454101562,//fangjia.fang.com/process/hz/2011189090.htm,3
圣奥领寓,31425,120.28726959228516,30.308998107910156,//fangjia.fang.com/process/hz/2010337350.htm,3
地铁东城广场,19777,120.28467559814453,30.316537857055664,//fangjia.fang.com/process/hz/2011200066.htm,3
香滨湾花园,30163,120.27518463134766,30.315820693969727,//fangjia.fang.com/process/hz/2010069723.htm,3
九洲芳园,29661,120.28939819335938,30.309804916381836,//fangjia.fang.com/process/hz/2010473102.htm,3
海景城,26127,120.2901382446289,30.304468154907227,//fangjia.fang.com/process/hz/2010580748.htm,3
蓝桥景苑,24672,120.28569793701172,30.314504623413086,//fangjia.fang.com/process/hz/2011136986.htm,3
圆梦园,34077,120.2791748046875,30.2988224029541,//fangjia.fang.com/process/hz/2010102267.htm,3
汇盛德堡,29722,120.26628112792969,30.31943130493164,//fangjia.fang.com/process/hz/2010296222.htm,3
圆梦园别墅,34841,120.2794418334961,30.29977035522461,//fangjia.fang.com/process/hz/2010779138.htm,3
圆梦园公寓,31560,120.27887725830078,30.29991340637207,//fangjia.fang.com/process/hz/2010183644.htm,3
风林公寓,27304,120.27046203613281,30.3078670501709,//fangjia.fang.com/process/hz/2010296662.htm,3
阳光景台,27003,120.2783203125,30.303607940673828,//fangjia.fang.com/process/hz/2010877128.htm,3
东都公寓,25551,120.27183532714844,30.30845832824707,//fangjia.fang.com/process/hz/2010409348.htm,3
东大门公寓,20815,120.29033660888672,30.320785522460938,//fangjia.fang.com/process/hz/2011131936.htm,3
凯旋,47488,120.19706726074219000000,30.26658439636230500000,//fangjia.fang.com/zoushi/c0hz/a0153-b01266/,2
凯旋新村,48057,120.19596862792969,30.258831024169922,//fangjia.fang.com/process/hz/2010410086.htm,3
金牛坊,46271,120.1961441040039,30.26112937927246,//fangjia.fang.com/process/hz/2010580750.htm,3
新安铭苑,37081,120.1952896118164,30.28746223449707,//fangjia.fang.com/process/hz/2010516702.htm,3
采荷紫园,51193,120.19634246826172,30.259132385253906,//fangjia.fang.com/process/hz/2010156468.htm,3
红树林花园,38553,120.1958236694336,30.288888931274414,//fangjia.fang.com/process/hz/2010064221.htm,3
汇鑫枫景苑,46347,120.20834350585938,30.26698112487793,//fangjia.fang.com/process/hz/2010608912.htm,3
凯旋路104号,53046,120.19703674316406,30.259305953979492,//fangjia.fang.com/process/hz/2010828390.htm,3
凯旋路34号,46276,120.19804382324219,30.268024444580078,//fangjia.fang.com/process/hz/2010828486.htm,3
人民社区,47583,120.19666290283203,30.25934410095215,//fangjia.fang.com/process/hz/2010631330.htm,3
华景公寓,43066,120.19666290283203,30.270729064941406,//fangjia.fang.com/process/hz/2010247464.htm,3
凯旋路110号,50540,120.19738006591797,30.26024627685547,//fangjia.fang.com/process/hz/2010828480.htm,3
华景北苑,47093,120.1967544555664,30.27018928527832,//fangjia.fang.com/process/hz/2010251350.htm,3
华景南苑,45163,120.1966781616211,30.267728805541992,//fangjia.fang.com/process/hz/2010251354.htm,3
景秋公寓,44981,120.20510864257812,30.27001953125,//fangjia.fang.com/process/hz/2010251464.htm,3
金兰池社区,45847,120.19928741455078,30.267196655273438,//fangjia.fang.com/process/hz/2010254948.htm,3
健风大厦,47040,120.20751190185547,30.260263442993164,//fangjia.fang.com/process/hz/2010605728.htm,3
凯旋公寓,52338,120.19660949707031,30.254756927490234,//fangjia.fang.com/process/hz/2010007965.htm,3
凯景公寓,46452,120.19481658935547,30.251596450805664,//fangjia.fang.com/process/hz/2010979392.htm,3
龙生凯旋花园,47563,120.19752502441406,30.266021728515625,//fangjia.fang.com/process/hz/2010093423.htm,3
农药厂宿舍,41089,120.20049285888672,30.290037155151367,//fangjia.fang.com/process/hz/2010639784.htm,3
庆春门社区,51316,120.21060943603516,30.273412704467773,//fangjia.fang.com/process/hz/2010255388.htm,3
人民新村,52625,120.19683074951172,30.25996971130371,//fangjia.fang.com/process/hz/2010246784.htm,3
宋都梅苑人家,46317,120.19601440429688,30.25680160522461,//fangjia.fang.com/process/hz/2010015803.htm,3
商教社区,62195,120.19755554199219,30.252811431884766,//fangjia.fang.com/process/hz/2010246822.htm,3
双菱路179号,62214,120.20194244384766,30.268259048461914,//fangjia.fang.com/process/hz/2011075738.htm,3
浙江交运大厦,34454,120.20719146728516,30.278676986694336,//fangjia.fang.com/process/hz/2010385786.htm,3
南肖埠,41718,120.20544433593750000000,30.26591682434082000000,//fangjia.fang.com/zoushi/c0hz/a0153-b015762/,2
滨江华家池,48361,120.19920349121094,30.279701232910156,//fangjia.fang.com/process/hz/2011168802.htm,3
南肖埠小区,39999,120.20133972167969,30.26517677307129,//fangjia.fang.com/process/hz/2010251502.htm,3
南肖埠御景苑,53991,120.20429992675781,30.26457977294922,//fangjia.fang.com/process/hz/2010389402.htm,3
南肖埠景和苑,42695,120.20571899414062,30.26604461669922,//fangjia.fang.com/process/hz/2010406404.htm,3
新城市广场,19004,120.20628356933594,30.267568588256836,//fangjia.fang.com/process/hz/2010064225.htm,3
南肖埠文景苑,45978,120.20133209228516,30.26980209350586,//fangjia.fang.com/process/hz/2010069671.htm,3
南肖埠北景东苑,37267,120.20518493652344,30.26871681213379,//fangjia.fang.com/process/hz/2010139904.htm,3
南肖埠二小区,46452,120.20536804199219,30.26398277282715,//fangjia.fang.com/process/hz/2010839500.htm,3
彭埠,33814,120.21189880371094000000,30.29935646057128900000,//fangjia.fang.com/zoushi/c0hz/a0153-b02393/,2
阳光城普升,33306,120.25157928466797,30.316816329956055,//fangjia.fang.com/process/hz/2011113374.htm,3
万科中央公园,39736,120.23410034179688,30.30044174194336,//fangjia.fang.com/process/hz/2010182252.htm,3
东亚新干线公寓,25714,120.22747039794922,30.305999755859375,//fangjia.fang.com/process/hz/2010182658.htm,3
三花国际公寓,29140,,,//fangjia.fang.com/process/hz/2010183384.htm,3
新中宇维萨,42753,120.23255157470703,30.298538208007812,//fangjia.fang.com/process/hz/2010920918.htm,3
华家竹园,33143,120.25175476074219,30.29783058166504,//fangjia.fang.com/process/hz/2010251356.htm,3
普福公寓,26972,120.2547607421875,30.316661834716797,//fangjia.fang.com/process/hz/2011261498.htm,3
五堰庙,29982,120.2559814453125,30.299060821533203,//fangjia.fang.com/process/hz/2010251902.htm,3
兴隆二区,32807,120.2381362915039,30.2974910736084,//fangjia.fang.com/process/hz/2010248184.htm,3
云峰二区,32815,120.23497772216797,30.287813186645508,//fangjia.fang.com/process/hz/2010251982.htm,3
云峰一区,32705,120.2313232421875,30.282197952270508,//fangjia.fang.com/process/hz/2010252022.htm,3
云峰家园,36089,120.23214721679688,30.28615951538086,//fangjia.fang.com/process/hz/2011139536.htm,3
云河家园,39381,120.22496795654297,30.28480339050293,//fangjia.fang.com/process/hz/2011141494.htm,3
云峰三区,34281,120.2375717163086,30.285133361816406,//fangjia.fang.com/process/hz/2011251434.htm,3
章家坝东区,39388,120.24243927001953,30.489309310913086,//fangjia.fang.com/process/hz/2010252026.htm,3
中远小区,32815,120.214111328125,30.27723503112793,//fangjia.fang.com/process/hz/2010828270.htm,3
钱江新城,44997,120.21856689453125000000,30.24633598327636700000,//fangjia.fang.com/zoushi/c0hz/a0153-b07471/,2
绿城留香园,42017,120.23800659179688,30.278406143188477,//fangjia.fang.com/process/hz/2011207878.htm,3
万象城悦玺,42653,120.22055053710938,30.259506225585938,//fangjia.fang.com/process/hz/2010183824.htm,3
东方君悦,34389,120.2266616821289,30.257015228271484,//fangjia.fang.com/process/hz/2010789482.htm,3
融创大家侯潮府,68628,120.19113159179688,30.230987548828125,//fangjia.fang.com/process/hz/2011200732.htm,3
中企御品湾,38323,120.22384643554688,30.285846710205078,//fangjia.fang.com/process/hz/2011121566.htm,3
金基晓庐,54726,120.22614288330078,30.264083862304688,//fangjia.fang.com/process/hz/2010114781.htm,3
东方润园,65867,120.22896575927734,30.260149002075195,//fangjia.fang.com/process/hz/2010130222.htm,3
大家钱塘府,55750,120.22464752197266,30.277631759643555,//fangjia.fang.com/process/hz/2011113490.htm,3
万象城悦府,60338,120.22377014160156,30.25918197631836,//fangjia.fang.com/process/hz/2010219422.htm,3
盛世钱塘,52765,120.22920989990234,30.26470947265625,//fangjia.fang.com/process/hz/2010070669.htm,3
杭州来福士广场公寓,34808,120.21958923339844,30.2547664642334,//fangjia.fang.com/process/hz/2010183910.htm,3
城市之星,61178,120.2113265991211,30.24677276611328,//fangjia.fang.com/process/hz/2010454222.htm,3
向江来时代中心公寓,31553,120.22721099853516,30.284914016723633,//fangjia.fang.com/process/hz/2010182674.htm,3
御道路一号,50791,120.24068450927734,30.275739669799805,//fangjia.fang.com/process/hz/2011107094.htm,3
德信大家钱江府,40821,120.2303466796875,30.288801193237305,//fangjia.fang.com/process/hz/2011134212.htm,3
日信国际,39108,120.20166778564453,30.24013328552246,//fangjia.fang.com/process/hz/2010884280.htm,3
百大绿城,33085,120.21037292480469,30.2657470703125,//fangjia.fang.com/process/hz/2011047146.htm,3
世包国际中心公寓,38952,120.21299743652344,30.24304962158203,//fangjia.fang.com/process/hz/2010183376.htm,3
城市之星(50年),45186,120.20994567871094,30.246196746826172,//fangjia.fang.com/process/hz/2011166644.htm,3
万科大都会79号,70803,120.23754119873047,30.273008346557617,//fangjia.fang.com/process/hz/2011168042.htm,3
和谐嘉园,45001,120.21820068359375,30.260351181030273,//fangjia.fang.com/process/hz/2011064392.htm,3
钱塘航空大厦,26240,120.2158203125,30.243059158325195,//fangjia.fang.com/process/hz/2010894452.htm,3
水岸帝景,47507,120.23054504394531,30.261661529541016,//fangjia.fang.com/process/hz/2010102281.htm,3
蔚蓝公寓,56178,120.21065521240234,30.27020835876465,//fangjia.fang.com/process/hz/2010291382.htm,3
钱江国际时代广场,24166,120.21207427978516,30.245702743530273,//fangjia.fang.com/process/hz/2010182828.htm,3
新城国际,53454,120.22306823730469,30.262292861938477,//fangjia.fang.com/process/hz/2010110461.htm,3
钱江三苑,48659,120.2210693359375,30.264577865600586,//fangjia.fang.com/process/hz/2010515102.htm,3
钱江六苑,54423,120.21692657470703,30.266510009765625,//fangjia.fang.com/process/hz/2010410066.htm,3
金隅中铁诺德都会森林,54170,120.21668243408203,30.284093856811523,//fangjia.fang.com/process/hz/2010183884.htm,3
钱江七苑,43526,120.21673583984375,30.267898559570312,//fangjia.fang.com/process/hz/2010621134.htm,3
杭州高德置地广场,32859,,,//fangjia.fang.com/process/hz/2010185498.htm,3
融创涌清府,36110,120.22491455078125,30.282304763793945,//fangjia.fang.com/process/hz/2010182684.htm,3
万银国际,29000,120.22516632080078,30.257768630981445,//fangjia.fang.com/process/hz/2010891950.htm,3
常青公寓,31611,120.21112060546875,30.25190544128418,//fangjia.fang.com/process/hz/2011102984.htm,3
钱江四苑,46088,120.21992492675781,30.26589584350586,//fangjia.fang.com/process/hz/2010743946.htm,3
泛海国际,45438,120.21758270263672,30.246740341186523,//fangjia.fang.com/process/hz/2011074388.htm,3
海运都会钱塘,43478,120.18377685546875,30.219100952148438,//fangjia.fang.com/process/hz/2010326422.htm,3
钱江商务广场,37494,120.21693420410156,30.242752075195312,//fangjia.fang.com/process/hz/2010326424.htm,3
宋都天润,37472,120.28059387207031,30.301307678222656,//fangjia.fang.com/process/hz/2011103954.htm,3
UDC时代大厦公寓,45253,120.224365234375,30.25014305114746,//fangjia.fang.com/process/hz/2010888938.htm,3
三堡,34482,120.23059844970703000000,30.27186775207519500000,//fangjia.fang.com/zoushi/c0hz/a0153-b05525/,2
运新花苑,50171,120.2316665649414,30.27897071838379,//fangjia.fang.com/process/hz/2010829686.htm,3
三堡东苑,25433,120.22897338867188,30.277420043945312,//fangjia.fang.com/process/hz/2011108178.htm,3
三堡南苑,32815,120.22591400146484,30.27199935913086,//fangjia.fang.com/process/hz/2010251542.htm,3
三堡社区,32815,120.22468566894531,30.271764755249023,//fangjia.fang.com/process/hz/2010251548.htm,3
三堡北苑,32831,120.2231674194336,30.274324417114258,//fangjia.fang.com/process/hz/2011096064.htm,3
三堡家园,32826,120.22447967529297,30.269155502319336,//fangjia.fang.com/process/hz/2011141508.htm,3
三里亭,33216,120.19747924804688000000,30.29582595825195300000,//fangjia.fang.com/zoushi/c0hz/a0153-b05142/,2
三里亭苑三区,33172,120.19569396972656,30.298946380615234,//fangjia.fang.com/process/hz/2010535358.htm,3
三里家园三区,31165,120.19890594482422,30.303308486938477,//fangjia.fang.com/process/hz/2010840426.htm,3
三里亭四区,33595,120.19575500488281,30.3012752532959,//fangjia.fang.com/process/hz/2010410588.htm,3
首开德胜上郡,34350,120.19776153564453,30.313724517822266,//fangjia.fang.com/process/hz/2011181534.htm,3
三里新城兰苑,33988,120.19477844238281,30.29538345336914,//fangjia.fang.com/process/hz/2010007754.htm,3
锦润公寓,40353,120.20672607421875,30.30669403076172,//fangjia.fang.com/process/hz/2011087756.htm,3
三里亭二区,33303,120.20024108886719,30.30142593383789,//fangjia.fang.com/process/hz/2010416190.htm,3
蓝天城市花园,35073,120.19615936279297,30.290815353393555,//fangjia.fang.com/process/hz/2010063906.htm,3
三里新城桂苑,33020,120.19892120361328,30.29564094543457,//fangjia.fang.com/process/hz/2010251704.htm,3
三里家园一区,33872,120.19586944580078,30.306507110595703,//fangjia.fang.com/process/hz/2010514748.htm,3
三里亭苑一区,33787,120.19756317138672,30.298091888427734,//fangjia.fang.com/process/hz/2010416182.htm,3
三里家园二区,31859,120.19511413574219,30.303552627563477,//fangjia.fang.com/process/hz/2010536468.htm,3
神州白云大厦,15775,120.19599151611328,30.290128707885742,//fangjia.fang.com/process/hz/2010064222.htm,3
三里新城荷苑,34374,120.19417572021484,30.294082641601562,//fangjia.fang.com/process/hz/2011103182.htm,3
三里家园,34005,120.19572448730469,30.3031005859375,//fangjia.fang.com/process/hz/2010410062.htm,3
三里新城,37069,120.1962890625,30.296443939208984,//fangjia.fang.com/process/hz/2010861176.htm,3
广宇水岸雅苑,32748,120.19690704345703,30.304285049438477,//fangjia.fang.com/process/hz/2010153302.htm,3
蓝天公寓,42791,120.19534301757812,30.2928409576416,//fangjia.fang.com/process/hz/2010350022.htm,3
广利佳苑,31920,120.1982192993164,30.30164909362793,//fangjia.fang.com/process/hz/2010068421.htm,3
三里新城橘苑,32991,120.20121002197266,30.298032760620117,//fangjia.fang.com/process/hz/2010251702.htm,3
机场路一巷小区,31454,120.19880676269531,30.293046951293945,//fangjia.fang.com/process/hz/2010624092.htm,3
三里新城竹苑,32275,120.19705963134766,30.29758071899414,//fangjia.fang.com/process/hz/2010251708.htm,3
天城铭苑,32078,120.19187927246094,30.287235260009766,//fangjia.fang.com/process/hz/2010875380.htm,3
三里新城柳苑,28834,120.199951171875,30.29700469970703,//fangjia.fang.com/process/hz/2010251706.htm,3
百合公寓,28898,120.20115661621094,30.302026748657227,//fangjia.fang.com/process/hz/2010109663.htm,3
杭州大润城,22466,120.20040130615234,30.262908935546875,//fangjia.fang.com/process/hz/2011061810.htm,3
钱塘沁园,34790,120.19971466064453,30.293901443481445,//fangjia.fang.com/process/hz/2010064173.htm,3
三里亭小区,35498,120.19738006591797,30.300331115722656,//fangjia.fang.com/process/hz/2010247902.htm,3
三里新城梅苑,33557,120.20124053955078,30.296157836914062,//fangjia.fang.com/process/hz/2010320664.htm,3
佰富时代中心公寓,15956,120.20523834228516,30.297597885131836,//fangjia.fang.com/process/hz/2011145712.htm,3
四海花城,46830,120.20726776123047,30.269283294677734,//fangjia.fang.com/process/hz/2010251622.htm,3
三里亭工农路小区,39406,120.19954681396484,30.29828453063965,//fangjia.fang.com/process/hz/2010828624.htm,3
三里新城东升苑,38987,120.19718170166016,30.29511260986328,//fangjia.fang.com/process/hz/2010901222.htm,3
三里亭东苑,39110,120.20508575439453,30.299976348876953,//fangjia.fang.com/process/hz/2010902946.htm,3
四季青,48719,120.20258331298828000000,30.25294303894043000000,//fangjia.fang.com/zoushi/c0hz/a0153-b015763/,2
夕照新村,48442,120.2015609741211,30.25082778930664,//fangjia.fang.com/process/hz/2010251942.htm,3
凯旋苑,48162,120.19935607910156,30.25551986694336,//fangjia.fang.com/process/hz/2010409314.htm,3
观音塘小区,41990,120.21068572998047,30.25051498413086,//fangjia.fang.com/process/hz/2010251342.htm,3
茶厂宿舍,59736,120.20067596435547,30.254112243652344,//fangjia.fang.com/process/hz/2010518704.htm,3
三叉花苑,55914,120.21638488769531,30.26468276977539,//fangjia.fang.com/process/hz/2010251582.htm,3
四季星座,46830,120.19991302490234,30.25013542175293,//fangjia.fang.com/process/hz/2010894502.htm,3
塘苗新村,39961,120.20576477050781,30.256052017211914,//fangjia.fang.com/process/hz/2011197078.htm,3
五堡,29478,120.24275970458984000000,30.29026412963867200000,//fangjia.fang.com/zoushi/c0hz/a0153-b05524/,2
原筑悦庄,20899,120.24150085449219,30.313575744628906,//fangjia.fang.com/process/hz/2011090450.htm,3
中豪五星国际,26455,,,//fangjia.fang.com/process/hz/2010185426.htm,3
五堡三区,32815,120.24085235595703,30.292098999023438,//fangjia.fang.com/process/hz/2010251822.htm,3
五堡一区,32815,120.2478256225586,30.287351608276367,//fangjia.fang.com/process/hz/2010251824.htm,3
五堡二区,32815,120.24639892578125,30.283777236938477,//fangjia.fang.com/process/hz/2010251826.htm,3
五堡四区,32815,120.24481201171875,30.28761863708496,//fangjia.fang.com/process/hz/2010251828.htm,3
五福亭一区,31215,120.25328063964844,30.28954315185547,//fangjia.fang.com/process/hz/2010251862.htm,3
五福亭二区,25991,120.2522201538086,30.28772735595703,//fangjia.fang.com/process/hz/2010183596.htm,3
下沙物美,21647,120.35433197021484000000,30.32280349731445300000,//fangjia.fang.com/zoushi/c0hz/a0153-b015479/,2
四季风景,25957,120.35340881347656,30.308860778808594,//fangjia.fang.com/process/hz/2010360222.htm,3
元成小时代,14596,120.3512191772461,30.333518981933594,//fangjia.fang.com/process/hz/2011135760.htm,3
东部之星,16151,120.39359283447266,30.33812141418457,//fangjia.fang.com/process/hz/2010185208.htm,3
金地宋都都会钱塘,23743,120.39401245117188,30.336414337158203,//fangjia.fang.com/process/hz/2010183894.htm,3
清雅苑,20093,120.370361328125,30.319368362426758,//fangjia.fang.com/process/hz/2010104540.htm,3
盛泰名都公寓,25814,120.3540267944336,30.31031608581543,//fangjia.fang.com/process/hz/2010589142.htm,3
大都文苑风情,24720,120.34974670410156,30.314699172973633,//fangjia.fang.com/process/hz/2010063924.htm,3
东海未名园,25503,120.35653686523438,30.313060760498047,//fangjia.fang.com/process/hz/2010064032.htm,3
东盛家园,24425,120.34705352783203,30.33144760131836,//fangjia.fang.com/process/hz/2011095868.htm,3
西子阳光新城,12270,120.35376739501953,30.31278419494629,//fangjia.fang.com/process/hz/2010828662.htm,3
精欧荣寓,26781,120.35746002197266,30.30842399597168,//fangjia.fang.com/process/hz/2010859704.htm,3
和达城,33752,120.35338592529297,30.315393447875977,//fangjia.fang.com/process/hz/2010802018.htm,3
盛泰时代山,16246,120.36278533935547,30.312183380126953,//fangjia.fang.com/process/hz/2010862864.htm,3
16街区,17069,120.35899353027344,30.315441131591797,//fangjia.fang.com/process/hz/2010069200.htm,3
福雷德广场,22008,120.35462951660156,30.32304573059082,//fangjia.fang.com/process/hz/2010092823.htm,3
香榭里花园,26700,120.35243225097656,30.311983108520508,//fangjia.fang.com/process/hz/2010063916.htm,3
盛泰名都住宅,26356,120.35427856445312,30.31065559387207,//fangjia.fang.com/process/hz/2010184314.htm,3
艾肯金座,12204,120.35303497314453,30.322811126708984,//fangjia.fang.com/process/hz/2010812314.htm,3
东城大厦,10355,120.34526824951172,30.33060646057129,//fangjia.fang.com/process/hz/2011137420.htm,3
北银公寓,23693,120.35071563720703,30.312467575073242,//fangjia.fang.com/process/hz/2010251262.htm,3
月雅苑,28808,120.3568344116211,30.316192626953125,//fangjia.fang.com/process/hz/2010163422.htm,3
四季名门城市公寓,23398,120.36042785644531,30.30925178527832,//fangjia.fang.com/process/hz/2010609986.htm,3
裕园公寓,24438,120.35079956054688,30.309606552124023,//fangjia.fang.com/process/hz/2010560064.htm,3
之江铭楼,9741,120.35142517089844,30.308286666870117,//fangjia.fang.com/process/hz/2010763220.htm,3
和达城公寓,17185,120.35386657714844,30.315940856933594,//fangjia.fang.com/process/hz/2011079500.htm,3
下沙文汇苑,23211,120.35118865966797,30.311750411987305,//fangjia.fang.com/process/hz/2010063942.htm,3
康莱特公寓,15034,120.35594940185547,30.31260108947754,//fangjia.fang.com/process/hz/2011081144.htm,3
华顺别墅,32609,120.35237121582031,30.310890197753906,//fangjia.fang.com/process/hz/2010833832.htm,3
瓯江综合楼,23513,120.35702514648438,30.3128662109375,//fangjia.fang.com/process/hz/2010795102.htm,3
元成恒盛公寓,23035,120.34949493408203,30.331785202026367,//fangjia.fang.com/process/hz/2011137778.htm,3
下沙沿江,20294,120.38417053222656000000,30.28885459899902300000,//fangjia.fang.com/zoushi/c0hz/a0153-b02391/,2
保利东湾,24399,120.37910461425781,30.27832794189453,//fangjia.fang.com/process/hz/2010458742.htm,3
侨福一品高尔夫,16251,120.41263580322266,30.339927673339844,//fangjia.fang.com/process/hz/2010977650.htm,3
世茂江滨花园,22323,120.38921356201172,30.28922462463379,//fangjia.fang.com/process/hz/2010433102.htm,3
盈都君悦,14595,120.39676666259766,30.36017417907715,//fangjia.fang.com/process/hz/2010182344.htm,3
观澜时代,21624,120.37545776367188,30.27414894104004,//fangjia.fang.com/process/hz/2010451542.htm,3
野风海天城,24148,120.39202880859375,30.30552864074707,//fangjia.fang.com/process/hz/2010113921.htm,3
江悦城,16673,120.4051284790039,30.345972061157227,//fangjia.fang.com/process/hz/2011072014.htm,3
宋都晨光国际,25155,120.38558959960938,30.29157829284668,//fangjia.fang.com/process/hz/2010877134.htm,3
东郡国际,25087,120.40086364746094,30.330888748168945,//fangjia.fang.com/process/hz/2010933032.htm,3
